{"AUS":[{"name":"Adelaide International Bird Sanctuary National Park - Winaityinaityi Pangkara National Park","coordinates":{"lng":138.398,"lat":-34.5944}},{"name":"Albinia National Park","coordinates":{"lng":148.4923599,"lat":-24.4748351}},{"name":"Alexander Morrison National Park","coordinates":{"lng":115.486,"lat":-30.0839}},{"name":"Alfred National Park","coordinates":{"lng":149.360277777,"lat":-37.571388888}},{"name":"Alpine National Park","coordinates":{"lng":146.757,"lat":-37.3375}},{"name":"Alton National Park","coordinates":{"lng":149.313333333,"lat":-27.989722222}},{"name":"Amamoor National Park","coordinates":{"lng":152.6457223,"lat":-26.3245929}},{"name":"Annan River (Yuku Baja-Muliku) National Park","coordinates":{"lng":145.2069207,"lat":-15.5665902}},{"name":"Arakoon National Park","coordinates":{"lng":153.07,"lat":-30.88}},{"name":"Arakwal National Park","coordinates":{"lng":153.621,"lat":-28.6603}},{"name":"Astrebla Downs National Park","coordinates":{"lng":140.569166666,"lat":-24.211388888}},{"name":"Auburn River National Park","coordinates":{"lng":151.051944444,"lat":-25.721666666}},{"name":"Avon Valley National Park","coordinates":{"lng":116.183611111,"lat":-31.625}},{"name":"Badgingarra National Park","coordinates":{"lng":115.44,"lat":-30.4686}},{"name":"Bago Bluff National Park","coordinates":{"lng":152.629,"lat":-31.5322}},{"name":"Bald Rock National Park","coordinates":{"lng":152.0511111,"lat":-28.848333333}},{"name":"Ban Ban National Park","coordinates":{"lng":151.963061111,"lat":-25.834169444}},{"name":"Bangadilly National Park","coordinates":{"lng":150.17701149,"lat":-34.4642495}},{"name":"Bania National Park","coordinates":{"lng":151.4825372,"lat":-24.9806596}},{"name":"Barakee National Park","coordinates":{"lng":151.851666666,"lat":-31.641666666}},{"name":"Barmah National Park","coordinates":{"lng":145.118055555,"lat":-35.866666666}},{"name":"Barnard Island Group National Park","coordinates":{"lng":146.172777777,"lat":-17.674722222}},{"name":"Barool National Park","coordinates":{"lng":152.1925,"lat":-29.660277777}},{"name":"Barranyi (North Island) National Park","coordinates":{"lng":136.869,"lat":-15.5694}},{"name":"Barrington Tops National Park","coordinates":{"lng":151.5011111,"lat":-32.048333333}},{"name":"Barron Gorge National Park","coordinates":{"lng":145.652,"lat":-16.8428}},{"name":"Basilisk Range National Park","coordinates":{"lng":145.9778132,"lat":-17.6943897}},{"name":"Basket Swamp National Park","coordinates":{"lng":152.153055555,"lat":-28.933055555}},{"name":"Baw Baw National Park","coordinates":{"lng":146.223,"lat":-37.7639}},{"name":"Beelu National Park","coordinates":{"lng":116.15,"lat":-31.9544}},{"name":"Beeron National Park","coordinates":{"lng":151.3145182,"lat":-26.0064342}},{"name":"Belair National Park","coordinates":{"lng":138.655833333,"lat":-35.013055555}},{"name":"Belford National Park","coordinates":{"lng":151.29624367,"lat":-32.64956528}},{"name":"Bellinger River National Park","coordinates":{"lng":152.7011111,"lat":-30.415}},{"name":"Bellthorpe National Park","coordinates":{"lng":152.6790973,"lat":-26.8918025}},{"name":"Ben Lomond National Park","coordinates":{"lng":147.666667,"lat":-41.55}},{"name":"Benambra National Park","coordinates":{"lng":147.09560394,"lat":-35.78606988}},{"name":"Benarkin National Park","coordinates":{"lng":152.170561111,"lat":-26.760561111}},{"name":"Bendick Murrell National Park","coordinates":{"lng":148.45,"lat":-34.06}},{"name":"Bendidee National Park","coordinates":{"lng":150.517777777,"lat":-28.300277777}},{"name":"Beninbi National Park","coordinates":{"lng":151.7400064,"lat":-25.8834597}},{"name":"Biamanga National Park","coordinates":{"lng":149.941944444,"lat":-36.451111111}},{"name":"Bimberamala National Park","coordinates":{"lng":150.113888888,"lat":-35.486944444}},{"name":"Bindarri National Park","coordinates":{"lng":152.933,"lat":-30.295}},{"name":"Bingera National Park","coordinates":{"lng":152.3157947,"lat":-25.0277748}},{"name":"Binya National Park","coordinates":{"lng":145.6119765,"lat":-28.8467689}},{"name":"Biriwal Bulga National Park","coordinates":{"lng":152.306388888,"lat":-31.507222222}},{"name":"Blackbraes National Park","coordinates":{"lng":144.181388888,"lat":-19.478888888}},{"name":"Blackdown Tableland National Park","coordinates":{"lng":149.06,"lat":-23.7236}},{"name":"Blackwood National Park","coordinates":{"lng":146.715,"lat":-21.461666666}},{"name":"Blackwood River National Park","coordinates":{"lng":115.4329705,"lat":-34.0670547}},{"name":"Bladensburg National Park","coordinates":{"lng":143.057222222,"lat":-22.6525}},{"name":"Blue Mountains National Park","coordinates":{"lng":150.4452778,"lat":-33.797222222}},{"name":"Bluff Hill National Park","coordinates":{"lng":148.7773749,"lat":-21.054851}},{"name":"Bongil Bongil National Park","coordinates":{"lng":153.034722222,"lat":-30.398611111}},{"name":"Boodjamulla (Lawn Hill) National Park","coordinates":{"lng":138.488,"lat":-18.7014}},{"name":"Boonoo Boonoo National Park","coordinates":{"lng":152.178333333,"lat":-28.8175}},{"name":"Boorabbin National Park","coordinates":{"lng":120.169,"lat":-31.2383}},{"name":"Boorara-Gardner National Park","coordinates":{"lng":116.1866723,"lat":-34.7114879}},{"name":"Border Ranges National Park","coordinates":{"lng":152.986111111,"lat":-28.359722222}},{"name":"Bouddi National Park","coordinates":{"lng":151.4177778,"lat":-33.498333333}},{"name":"Bowling Green Bay National Park","coordinates":{"lng":147.033888888,"lat":-19.213333333}},{"name":"Boyndaminup National Park","coordinates":{"lng":116.5638349,"lat":-34.5186912}},{"name":"Brampton Islands National Park","coordinates":{"lng":149.284419444,"lat":-20.793161111}},{"name":"Bribie Island National Park","coordinates":{"lng":153.126666666,"lat":-26.867222222}},{"name":"Brindabella National Park","coordinates":{"lng":148.8011111,"lat":-35.238611111}},{"name":"Brisbane Ranges National Park","coordinates":{"lng":144.279,"lat":-37.7953}},{"name":"Brisbane Water National Park","coordinates":{"lng":151.3011111,"lat":-33.459444444}},{"name":"Broad Sound Islands National Park","coordinates":{"lng":149.787222222,"lat":-21.813611111}},{"name":"Broadwater National Park","coordinates":{"lng":153.41,"lat":-29.053888888}},{"name":"Brockman National Park","coordinates":{"lng":115.996,"lat":-34.5144}},{"name":"Brook Islands National Park","coordinates":{"lng":146.282222222,"lat":-18.141388888}},{"name":"Budawang National Park","coordinates":{"lng":150.0011111,"lat":-35.498333333}},{"name":"Budderoo National Park","coordinates":{"lng":150.7011111,"lat":-34.648333333}},{"name":"Budj Bim National Park","coordinates":{"lng":141.888611111,"lat":-38.078888888}},{"name":"Bugong National Park","coordinates":{"lng":150.44306,"lat":-34.825}},{"name":"Bulburin National Park","coordinates":{"lng":151.5079648,"lat":-24.6490873}},{"name":"Bulleringa National Park","coordinates":{"lng":143.829,"lat":-17.5803}},{"name":"Bundjalung National Park","coordinates":{"lng":153.3344444,"lat":-29.331666666}},{"name":"Bungawalbin National Park","coordinates":{"lng":153.143888888,"lat":-29.098055555}},{"name":"Bungonia National Park","coordinates":{"lng":150.01638889,"lat":-34.79722222}},{"name":"Bunuba National Park","coordinates":{"lng":125.8718,"lat":-17.9347}},{"name":"Bunya Mountains National Park","coordinates":{"lng":151.536944444,"lat":-26.799444444}},{"name":"Burleigh Head National Park","coordinates":{"lng":153.457222222,"lat":-28.095277777}},{"name":"Burrowa - Pine Mountain National Park","coordinates":{"lng":147.758,"lat":-36.09}},{"name":"Burrum Coast National Park","coordinates":{"lng":152.4675,"lat":-24.999166666}},{"name":"Butterleaf National Park","coordinates":{"lng":152.011944444,"lat":-29.518888888}},{"name":"Byfield National Park","coordinates":{"lng":150.731666666,"lat":-22.783888888}},{"name":"Camooweal Caves National Park","coordinates":{"lng":138.19,"lat":-20.01916667}},{"name":"Cania Gorge National Park","coordinates":{"lng":150.989444444,"lat":-24.66}},{"name":"Canunda National Park","coordinates":{"lng":140.283,"lat":-37.7156}},{"name":"Cape Arid National Park","coordinates":{"lng":123.369,"lat":-33.7039}},{"name":"Cape Hillsborough National Park","coordinates":{"lng":148.994,"lat":-20.8989}},{"name":"Cape Le Grand National Park","coordinates":{"lng":122.156,"lat":-33.9469}},{"name":"Cape Palmerston National Park","coordinates":{"lng":149.4275,"lat":-21.590277777}},{"name":"Cape Range (South) National Park","coordinates":{"lng":113.7251,"lat":-22.5886}},{"name":"Cape Range National Park","coordinates":{"lng":113.921,"lat":-22.1233}},{"name":"Cape Upstart National Park","coordinates":{"lng":147.760833333,"lat":-19.713333333}},{"name":"Capertee National Park","coordinates":{"lng":150.0346,"lat":-33.0318}},{"name":"Capoompeta National Park","coordinates":{"lng":152.008888888,"lat":-29.392777777}},{"name":"Capricorn Coast National Park","coordinates":{"lng":150.743888888,"lat":-23.122222222}},{"name":"Capricornia Cays National Park","coordinates":{"lng":152.288561111,"lat":-23.809519444}},{"name":"Carnarvon National Park","coordinates":{"lng":147.997,"lat":-24.6358}},{"name":"Carrai National Park","coordinates":{"lng":152.241944444,"lat":-30.893055555}},{"name":"Cascade National Park","coordinates":{"lng":152.808611111,"lat":-30.258055555}},{"name":"Castle Tower National Park","coordinates":{"lng":151.306944444,"lat":-24.1575}},{"name":"Cataract National Park","coordinates":{"lng":152.33608246,"lat":-28.73944444}},{"name":"Cathedral Rock National Park","coordinates":{"lng":152.2511111,"lat":-30.415}},{"name":"Cattai National Park","coordinates":{"lng":150.897,"lat":-33.5472}},{"name":"Chaelundi National Park","coordinates":{"lng":152.510833333,"lat":-29.944166666}},{"name":"Charles Darwin National Park","coordinates":{"lng":130.87333333,"lat":-12.45083333}},{"name":"Cherbourg National Park","coordinates":{"lng":151.9919941,"lat":-26.4112683}},{"name":"Chesterton Range National Park","coordinates":{"lng":147.324166666,"lat":-26.154166666}},{"name":"Chillagoe-Mungana Caves National Park","coordinates":{"lng":144.393055555,"lat":-17.091666666}},{"name":"Chiltern-Mt Pilot National Park","coordinates":{"lng":146.601,"lat":-36.1331}},{"name":"Christmas Island National Park","coordinates":{"lng":105.62316,"lat":-10.49153}},{"name":"Churchill National Park","coordinates":{"lng":145.26,"lat":-37.9514}},{"name":"Claremont Isles National Park","coordinates":{"lng":143.833888888,"lat":-13.911111111}},{"name":"Clements Gap Conservation Park","coordinates":{"lng":138.0761,"lat":-33.49232}},{"name":"Clump Mountain National Park","coordinates":{"lng":146.095555555,"lat":-17.820277777}},{"name":"Clyde River National Park","coordinates":{"lng":150.149166666,"lat":-35.678333333}},{"name":"Coalstoun Lakes National Park","coordinates":{"lng":151.909,"lat":-25.5978}},{"name":"Cobboboonee National Park","coordinates":{"lng":141.446,"lat":-38.1264}},{"name":"Cocoparra National Park","coordinates":{"lng":146.2177778,"lat":-34.131666666}},{"name":"Coffin Bay National Park","coordinates":{"lng":135.322,"lat":-34.5822}},{"name":"Collier Range National Park","coordinates":{"lng":119.272,"lat":-24.6236}},{"name":"Columbey National Park","coordinates":{"lng":151.73732758,"lat":-32.58782691}},{"name":"Conimbla National Park","coordinates":{"lng":148.439166666,"lat":-33.748333333}},{"name":"Conondale National Park","coordinates":{"lng":152.645555555,"lat":-26.663055555}},{"name":"Conway National Park","coordinates":{"lng":148.765,"lat":-20.263333333}},{"name":"Coopracambra National Park","coordinates":{"lng":149.22,"lat":-37.3114}},{"name":"Coorabakh National Park","coordinates":{"lng":152.5225,"lat":-31.712222222}},{"name":"Coorong National Park","coordinates":{"lng":139.553611111,"lat":-36.049166666}},{"name":"Cordalba National Park","coordinates":{"lng":152.0962645,"lat":-25.1153518}},{"name":"Cottan-Bimbang National Park","coordinates":{"lng":152.133888888,"lat":-31.350555555}},{"name":"Cradle Mountain-Lake St Clair National Park","coordinates":{"lng":145.924166666,"lat":-41.830277777}},{"name":"Croajingolong National Park","coordinates":{"lng":149.4667,"lat":-37.6167}},{"name":"Crows Nest National Park","coordinates":{"lng":152.074166666,"lat":-27.253888888}},{"name":"Cudmore National Park","coordinates":{"lng":146.2939,"lat":-22.9409}},{"name":"Culgoa Floodplain National Park","coordinates":{"lng":146.825833333,"lat":-28.8225}},{"name":"Culgoa National Park","coordinates":{"lng":147.035277777,"lat":-29.080555555}},{"name":"Cunnawarra National Park","coordinates":{"lng":152.217222222,"lat":-30.624722222}},{"name":"Curracabundi National Park","coordinates":{"lng":151.61956787,"lat":-31.6457826}},{"name":"Currawinya National Park","coordinates":{"lng":144.478011111,"lat":-28.783702777}},{"name":"Curtain Fig National Park","coordinates":{"lng":145.57361111,"lat":-17.28583333}},{"name":"Curtis Island National Park","coordinates":{"lng":151.221111111,"lat":-23.530277777}},{"name":"Cuttaburra National Park","coordinates":null},{"name":"D'Aguilar National Park","coordinates":{"lng":152.777777777,"lat":-27.308888888}},{"name":"D'Entrecasteaux National Park","coordinates":{"lng":116.115,"lat":-34.7469}},{"name":"Dalgarup National Park","coordinates":{"lng":115.9860788,"lat":-33.9845943}},{"name":"Dalrymple National Park","coordinates":{"lng":146.099444444,"lat":-19.787777777}},{"name":"Dan Dan National Park","coordinates":{"lng":151.066669444,"lat":-24.15945}},{"name":"Danbulla National Park","coordinates":{"lng":145.54638889,"lat":-17.15333333}},{"name":"Davies Creek National Park","coordinates":{"lng":145.581666666,"lat":-17.009722222}},{"name":"Dawes National Park","coordinates":{"lng":151.208330555,"lat":-24.65}},{"name":"Deepwater National Park","coordinates":{"lng":151.891944444,"lat":-24.261111111}},{"name":"Deer Reserve National Park","coordinates":{"lng":152.5268846,"lat":-27.085607}},{"name":"Denham Group National Park","coordinates":{"lng":143.015833333,"lat":-11.108888888}},{"name":"Deua National Park","coordinates":{"lng":149.7511111,"lat":-35.915}},{"name":"Dharawal National Park","coordinates":{"lng":150.851526,"lat":-34.203852}},{"name":"Dharug National Park","coordinates":{"lng":151.0844444,"lat":-33.365}},{"name":"Dhilba Guuranda-Innes National Park","coordinates":{"lng":136.895,"lat":-35.2278}},{"name":"Diamantina National Park","coordinates":{"lng":141.136111111,"lat":-23.357222222}},{"name":"Dinden National Park","coordinates":{"lng":145.61666667,"lat":-17.00972222}},{"name":"Dirk Hartog Island National Park","coordinates":{"lng":113.07944444,"lat":-25.82027778}},{"name":"Djiru National Park","coordinates":{"lng":146.06166667,"lat":-17.89166667}},{"name":"Djukbinj National Park","coordinates":{"lng":131.286,"lat":-12.1333}},{"name":"Dooragan National Park","coordinates":{"lng":152.773888888,"lat":-31.664444444}},{"name":"Dorrigo National Park","coordinates":{"lng":152.7511111,"lat":-30.381666666}},{"name":"Douglas-Apsley National Park","coordinates":{"lng":148.199,"lat":-41.7583}},{"name":"Drovers Cave National Park","coordinates":{"lng":115.087777777,"lat":-30.234444444}},{"name":"Dryander National Park","coordinates":{"lng":148.565833333,"lat":-20.218055555}},{"name":"Dryandra Woodland National Park","coordinates":{"lng":116.967,"lat":-32.7833}},{"name":"Drysdale River National Park","coordinates":{"lng":126.776,"lat":-15.1614}},{"name":"Dthinna Dthinnawan CCA Zone 1 National Park","coordinates":{"lng":150.858333333,"lat":-28.811111111}},{"name":"Dularcha National Park","coordinates":{"lng":152.961111111,"lat":-26.776666666}},{"name":"Dulcie Range National Park","coordinates":{"lng":135.608,"lat":-22.5778}},{"name":"Dunggir National Park","coordinates":{"lng":152.651944444,"lat":-30.676666666}},{"name":"Easter National Park","coordinates":{"lng":115.7951481,"lat":-34.2022268}},{"name":"Edel Land National Park","coordinates":{"lng":113.155,"lat":-26.151388888}},{"name":"Ella Bay National Park","coordinates":{"lng":146.056666666,"lat":-17.395555555}},{"name":"Elsey National Park","coordinates":{"lng":133.193,"lat":-14.9531}},{"name":"Endeavour River National Park","coordinates":{"lng":145.217,"lat":-15.4419}},{"name":"Erringibba National Park","coordinates":{"lng":149.704166666,"lat":-27.290277777}},{"name":"Errinundra National Park","coordinates":{"lng":148.895,"lat":-37.2858}},{"name":"Esk National Park","coordinates":{"lng":152.319719444,"lat":-27.294719444}},{"name":"Eubenangee Swamp National Park","coordinates":{"lng":145.957,"lat":-17.4233}},{"name":"Eucla National Park","coordinates":{"lng":128.945,"lat":-31.6803}},{"name":"Eudlo Creek National Park","coordinates":{"lng":152.961944444,"lat":-26.706944444}},{"name":"Eungella National Park","coordinates":{"lng":148.627780555,"lat":-21.04305}},{"name":"Eurimbula National Park","coordinates":{"lng":151.7825,"lat":-24.176111111}},{"name":"Eurobodalla National Park","coordinates":{"lng":150.1247222,"lat":-36.121944444}},{"name":"Everlasting Swamp National Park","coordinates":{"lng":153.0485,"lat":-29.5259}},{"name":"Expedition National Park","coordinates":{"lng":148.865555555,"lat":-25.128888888}},{"name":"Fairlies Knob National Park","coordinates":{"lng":152.293055555,"lat":-25.505}},{"name":"Family Islands National Park","coordinates":{"lng":146.135277777,"lat":-17.925833333}},{"name":"Ferntree Creek National Park","coordinates":{"lng":152.963888888,"lat":-26.605277777}},{"name":"Finke Gorge National Park","coordinates":{"lng":132.818,"lat":-24.1447}},{"name":"Finucane Island National Park","coordinates":{"lng":139.77833333,"lat":-17.62333333}},{"name":"Fitzgerald River National Park","coordinates":{"lng":119.615,"lat":-33.9475}},{"name":"Fitzroy Island National Park","coordinates":{"lng":145.992222222,"lat":-16.93}},{"name":"Flinders Chase National Park","coordinates":{"lng":136.673,"lat":-35.9772}},{"name":"Forest Den National Park","coordinates":{"lng":145.17527778,"lat":-22.12166667}},{"name":"Forest Grove National Park","coordinates":{"lng":115.1326301,"lat":-34.1047119}},{"name":"Fort Lytton National Park","coordinates":{"lng":153.15,"lat":-27.412222222}},{"name":"Fortis Creek National Park","coordinates":{"lng":152.879444444,"lat":-29.429722222}},{"name":"Forty Mile Scrub National Park","coordinates":{"lng":144.862,"lat":-18.0894}},{"name":"Frank Hann National Park","coordinates":{"lng":120.237,"lat":-32.9281}},{"name":"Frankland Group National Park","coordinates":{"lng":146.011666666,"lat":-17.163611111}},{"name":"Franklin-Gordon Wild Rivers National Park","coordinates":{"lng":146.032,"lat":-42.4094}},{"name":"Freshwater National Park","coordinates":{"lng":152.989722222,"lat":-27.175555555}},{"name":"Freycinet National Park","coordinates":{"lng":148.283333,"lat":-42.05}},{"name":"Gaagal Wanggaan (South Beach) National Park","coordinates":{"lng":153.00075531,"lat":-30.6689237}},{"name":"Gadgarra National Park","coordinates":{"lng":145.7196901,"lat":-17.3200761}},{"name":"Garig Gunak Barlu National Park","coordinates":{"lng":132.23972222,"lat":-11.36555556}},{"name":"Garigal National Park","coordinates":{"lng":151.236,"lat":-33.7058}},{"name":"Gatton National Park","coordinates":{"lng":152.3017645,"lat":-27.6058087}},{"name":"Gawler Ranges National Park","coordinates":{"lng":135.464,"lat":-32.5539}},{"name":"Geham National Park","coordinates":{"lng":152.0375463,"lat":-27.3883428}},{"name":"Geikie Gorge National Park","coordinates":{"lng":125.714,"lat":-18.0772}},{"name":"Georges River Koala National Park","coordinates":null},{"name":"Georges River National Park","coordinates":{"lng":151.032,"lat":-33.9828}},{"name":"Ghin-Doo-Ee National Park","coordinates":{"lng":152.116944444,"lat":-32.262222222}},{"name":"Gibraltar Range National Park","coordinates":{"lng":152.323888888,"lat":-29.554444444}},{"name":"Gir-um-bit National Park","coordinates":{"lng":151.96838379,"lat":-32.71104439}},{"name":"Girramay National Park","coordinates":{"lng":146.028,"lat":-18.0447}},{"name":"Girraween National Park","coordinates":{"lng":151.912,"lat":-28.7742}},{"name":"Girringun National Park","coordinates":{"lng":145.58333333,"lat":-18.08333333}},{"name":"Glass House Mountains National Park","coordinates":{"lng":152.954,"lat":-26.8475}},{"name":"Glastonbury National Park","coordinates":{"lng":152.50861,"lat":-26.29083}},{"name":"Glenbar National Park","coordinates":{"lng":152.359722222,"lat":-25.856111111}},{"name":"Gloucester Island National Park","coordinates":{"lng":148.455,"lat":-20.01527778}},{"name":"Gloucester National Park","coordinates":{"lng":116.059,"lat":-34.4444}},{"name":"Goldfields Woodlands National Park","coordinates":{"lng":120.537401,"lat":-31.2146643}},{"name":"Goneaway National Park","coordinates":{"lng":142.22972222,"lat":-23.76722222}},{"name":"Goobang National Park","coordinates":{"lng":148.3344444,"lat":-32.751111111}},{"name":"Good Night Scrub National Park","coordinates":{"lng":151.92,"lat":-25.22194444}},{"name":"Goodedulla National Park","coordinates":{"lng":149.75805556,"lat":-23.25416667}},{"name":"Goolawah National Park","coordinates":{"lng":152.96041489,"lat":-31.22513296}},{"name":"Goold Island National Park","coordinates":{"lng":146.17111111,"lat":-18.16694444}},{"name":"Goomboorian National Park","coordinates":{"lng":152.7896198,"lat":-26.1814406}},{"name":"Goonengerry National Park","coordinates":{"lng":153.404722222,"lat":-28.579722222}},{"name":"Goongarrie National Park","coordinates":{"lng":121.531,"lat":-30.0022}},{"name":"Gooseberry Hill National Park","coordinates":{"lng":116.0488171,"lat":-31.9394191}},{"name":"Goulburn River National Park","coordinates":{"lng":150.0011111,"lat":-32.248333333}},{"name":"Gourock National Park","coordinates":{"lng":149.55917,"lat":-35.97056}},{"name":"Great Basalt Wall National Park","coordinates":{"lng":145.72138889,"lat":-19.88111111}},{"name":"Great Koala National Park","coordinates":null},{"name":"Great Otway National Park","coordinates":{"lng":143.557,"lat":-38.7733}},{"name":"Greater Beedelup National Park","coordinates":{"lng":115.878,"lat":-34.4183}},{"name":"Greater Bendigo National Park","coordinates":{"lng":144.255,"lat":-36.6739}},{"name":"Greater Dordagup National Park","coordinates":{"lng":116.2883306,"lat":-34.501608}},{"name":"Greater Hawke National Park","coordinates":{"lng":115.9401624,"lat":-34.5231775}},{"name":"Greater Kingston National Park","coordinates":{"lng":116.4378478,"lat":-34.1064072}},{"name":"Greater Preston National Park","coordinates":{"lng":116.1922952,"lat":-33.571604}},{"name":"Green Island National Park","coordinates":{"lng":145.97444444,"lat":-16.75972222}},{"name":"Greenmount National Park","coordinates":{"lng":116.06,"lat":-31.9064}},{"name":"Grey Peaks National Park","coordinates":{"lng":145.847777777,"lat":-17.042222222}},{"name":"Grongah National Park","coordinates":{"lng":152.1287547,"lat":-25.9986311}},{"name":"Gulaga National Park","coordinates":{"lng":150.01916667,"lat":-36.30666667}},{"name":"Gull Rock National Park","coordinates":{"lng":118.003,"lat":-35.0075}},{"name":"Gumbaynggirr National Park","coordinates":{"lng":152.60241508,"lat":-30.53616833}},{"name":"Gunbower National Park","coordinates":{"lng":144.194,"lat":-35.6958}},{"name":"Gundabooka National Park","coordinates":{"lng":145.7163889,"lat":-30.509444444}},{"name":"Guula Ngurra National Park","coordinates":{"lng":150.131108718,"lat":-34.396291196}},{"name":"Guy Fawkes River National Park","coordinates":{"lng":152.3011111,"lat":-30.031666666}},{"name":"Gympie National Park","coordinates":{"lng":152.7094954,"lat":-26.0856073}},{"name":"Halifax Bay Wetlands National Park","coordinates":{"lng":146.268888888,"lat":-18.8675}},{"name":"Hampton National Park","coordinates":{"lng":152.0736927,"lat":-27.3525349}},{"name":"Hann Tableland National Park","coordinates":{"lng":145.151,"lat":-16.7983}},{"name":"Hartz Mountains National Park","coordinates":{"lng":146.756,"lat":-43.2297}},{"name":"Hassell National Park","coordinates":{"lng":118.37,"lat":-34.6789}},{"name":"Hasties Swamp National Park","coordinates":{"lng":145.474166666,"lat":-17.300277777}},{"name":"Hat Head National Park","coordinates":{"lng":153.0177778,"lat":-31.065}},{"name":"Hattah - Kulkyne National Park","coordinates":{"lng":142.382,"lat":-34.6872}},{"name":"Heathcote National Park","coordinates":{"lng":150.9761111,"lat":-34.098333333}},{"name":"Heathcote-Graytown National Park","coordinates":{"lng":144.866,"lat":-36.7963}},{"name":"Helena and Aurora Ranges National Park","coordinates":{"lng":119.7418,"lat":-30.084512068}},{"name":"Helena National Park","coordinates":{"lng":116.3146757,"lat":-32.0777475}},{"name":"Hell Hole Gorge National Park","coordinates":{"lng":144.15472222,"lat":-25.5375}},{"name":"Herberton Range National Park","coordinates":{"lng":145.46805556,"lat":-17.36527778}},{"name":"Hilliger National Park","coordinates":{"lng":115.6519506,"lat":-34.2445647}},{"name":"Hinchinbrook Island National Park","coordinates":{"lng":146.247,"lat":-18.3819}},{"name":"Holbourne Island National Park","coordinates":{"lng":148.36,"lat":-19.726944444}},{"name":"Homevale National Park","coordinates":{"lng":148.47166667,"lat":-21.35694444}},{"name":"Houtman Abrolhos Islands National Park","coordinates":{"lng":113.6975,"lat":-28.4635}},{"name":"Hull River National Park","coordinates":{"lng":146.0697222,"lat":-17.95611111}},{"name":"Hull River National Park","coordinates":{"lng":146.07,"lat":-17.9561}},{"name":"Humboldt National Park","coordinates":{"lng":148.933,"lat":-24.242}},{"name":"Hunter Wetlands National Park","coordinates":{"lng":151.7502614,"lat":-32.8526735}},{"name":"Idalia National Park","coordinates":{"lng":144.697,"lat":-24.9586}},{"name":"Ikara-Flinders Ranges National Park","coordinates":{"lng":138.705,"lat":-31.4222}},{"name":"Indwarra National Park","coordinates":{"lng":151.250555555,"lat":-30.085555555}},{"name":"Isla Gorge National Park","coordinates":{"lng":149.945,"lat":-25.169444444}},{"name":"Jane National Park","coordinates":{"lng":116.2454083,"lat":-34.6053182}},{"name":"Japoon National Park","coordinates":{"lng":145.887222222,"lat":-17.739722222}},{"name":"Jardine River National Park","coordinates":{"lng":142.627,"lat":-10.9211}},{"name":"Jerrawangala National Park","coordinates":{"lng":150.44,"lat":-35.06}},{"name":"Jervis Bay National Park","coordinates":{"lng":150.756,"lat":-34.9872}},{"name":"John Forrest National Park","coordinates":{"lng":116.091161,"lat":-31.869706}},{"name":"Judbarra / Gregory National Park","coordinates":{"lng":130.306897,"lat":-15.88815}},{"name":"Junee National Park","coordinates":{"lng":148.9887437,"lat":-22.7464741}},{"name":"Junuy Juluum National Park","coordinates":{"lng":152.727222222,"lat":-30.299166666}},{"name":"Kalamunda National Park","coordinates":{"lng":116.071,"lat":-31.9586}},{"name":"Kalbarri National Park","coordinates":{"lng":114.246,"lat":-27.7847}},{"name":"Kalyarr National Park","coordinates":{"lng":144.3226,"lat":-34.3113}},{"name":"Kamay Botany Bay National Park","coordinates":{"lng":151.224722222,"lat":-34.020555555}},{"name":"Kanangra-Boyd National Park","coordinates":{"lng":150.0844444,"lat":-33.998333333}},{"name":"Kara Kara National Park","coordinates":{"lng":143.285,"lat":-36.8606}},{"name":"Karijini National Park","coordinates":{"lng":117.976,"lat":-22.2506}},{"name":"Karlamilyi National Park","coordinates":{"lng":122.483333333,"lat":-22.333333333}},{"name":"Karuah National Park","coordinates":{"lng":151.94847107,"lat":-32.59484149}},{"name":"Kati Thanda-Lake Eyre National Park","coordinates":{"lng":137.524,"lat":-28.6689}},{"name":"Keep River National Park","coordinates":{"lng":129.14,"lat":-15.8164}},{"name":"Kelvin National Park","coordinates":{"lng":149.1995535,"lat":-21.5761658}},{"name":"Kemendok National Park","coordinates":{"lng":142.39105225,"lat":-34.60382392}},{"name":"Kennedy Range National Park","coordinates":{"lng":115.05,"lat":-24.5792}},{"name":"Kent Group National Park","coordinates":{"lng":147.28,"lat":-39.47}},{"name":"Keppel Bay Islands National Park","coordinates":{"lng":151.073055555,"lat":-23.159722222}},{"name":"Keverstone National Park","coordinates":{"lng":149.20555556,"lat":-34.10555556}},{"name":"Khappinghat National Park","coordinates":{"lng":152.4825,"lat":-31.9641}},{"name":"Kinglake National Park","coordinates":{"lng":145.211,"lat":-37.4064}},{"name":"Kings Plains National Park","coordinates":{"lng":151.365555555,"lat":-29.58}},{"name":"Kinrara National Park","coordinates":{"lng":144.948611111,"lat":-18.449166666}},{"name":"Kirrama National Park","coordinates":{"lng":145.61555556,"lat":-18.12111111}},{"name":"Kondalilla National Park","coordinates":{"lng":152.85833333,"lat":-26.66805556}},{"name":"Koombooloomba National Park","coordinates":{"lng":145.63361111,"lat":-17.82805556}},{"name":"Kooraban National Park","coordinates":{"lng":149.92,"lat":-36.32}},{"name":"Koreelah National Park","coordinates":{"lng":152.438888888,"lat":-28.305277777}},{"name":"Korung National Park","coordinates":{"lng":116.0946144,"lat":-32.0507501}},{"name":"Kosciuszko National Park","coordinates":{"lng":148.4186111,"lat":-36.412777777}},{"name":"Kroombit Tops National Park","coordinates":{"lng":150.958333333,"lat":-24.400833333}},{"name":"Ku-ring-gai Chase National Park","coordinates":{"lng":151.2011111,"lat":-33.615}},{"name":"Kumbatine National Park","coordinates":{"lng":152.601388888,"lat":-31.143055555}},{"name":"Kuranda National Park","coordinates":{"lng":145.61666667,"lat":-17.00972222}},{"name":"Kurrimine Beach National Park","coordinates":{"lng":146.09555556,"lat":-17.73222222}},{"name":"Kwiambal National Park","coordinates":{"lng":150.9816667,"lat":-29.154444444}},{"name":"Lachlan Valley National Park","coordinates":{"lng":145.112755,"lat":-33.7567804}},{"name":"Lake Bindegolly National Park","coordinates":{"lng":144.193611111,"lat":-28.013333333}},{"name":"Lake Eildon National Park","coordinates":{"lng":145.830138888,"lat":-37.151530555}},{"name":"Lake Gairdner National Park","coordinates":{"lng":135.854,"lat":-31.6972}},{"name":"Lake Muir National Park","coordinates":{"lng":116.67,"lat":-34.55}},{"name":"Lake Torrens National Park","coordinates":{"lng":137.859722222,"lat":-31.044444444}},{"name":"Lakeside National Park","coordinates":{"lng":117.5152,"lat":-27.6467}},{"name":"Lamington National Park","coordinates":{"lng":153.115,"lat":-28.1422}},{"name":"Lawley River National Park","coordinates":{"lng":125.9135905,"lat":-14.6779365}},{"name":"Leeuwin-Naturaliste National Park","coordinates":{"lng":115.047,"lat":-34.2386}},{"name":"Lesmurdie Falls National Park","coordinates":{"lng":116.031,"lat":-31.9954}},{"name":"Lesueur National Park","coordinates":{"lng":115.101,"lat":-30.1344}},{"name":"Limeburners Creek National Park","coordinates":{"lng":152.91557,"lat":-31.32327}},{"name":"Limmen National Park","coordinates":{"lng":135.143,"lat":-15.0367}},{"name":"Lincoln National Park","coordinates":{"lng":135.87,"lat":-34.8678}},{"name":"Lind National Park","coordinates":{"lng":148.96,"lat":-37.5706}},{"name":"Lindeman Islands National Park","coordinates":{"lng":149.086944444,"lat":-20.475}},{"name":"Litchfield National Park","coordinates":{"lng":130.876666666,"lat":-13.279166666}},{"name":"Littabella National Park","coordinates":{"lng":152.048055555,"lat":-24.579166666}},{"name":"Little Desert National Park","coordinates":{"lng":141.189,"lat":-36.6067}},{"name":"Little Mulgrave National Park","coordinates":{"lng":145.7008968,"lat":-17.1558296}},{"name":"Littleton National Park","coordinates":{"lng":142.6611,"lat":-18.3448}},{"name":"Livingstone National Park","coordinates":{"lng":147.35194,"lat":-35.37222}},{"name":"Lizard Island National Park","coordinates":{"lng":145.45944444,"lat":-14.66888889}},{"name":"Lochern National Park","coordinates":{"lng":143.325833333,"lat":-24.237222222}},{"name":"Lockyer National Park","coordinates":{"lng":152.2431285,"lat":-27.4396009}},{"name":"Lower Goulburn National Park","coordinates":{"lng":145.12,"lat":-36.1817}},{"name":"Maalan National Park","coordinates":{"lng":145.5564586,"lat":-17.5903852}},{"name":"Macalister Range National Park","coordinates":{"lng":145.57333333,"lat":-16.695}},{"name":"Macquarie Pass National Park","coordinates":{"lng":150.6511111,"lat":-34.565}},{"name":"Magnetic Island National Park","coordinates":{"lng":146.842222222,"lat":-19.135833333}},{"name":"Main Range National Park","coordinates":{"lng":152.41806,"lat":-28.09917}},{"name":"Malabar Headland National Park","coordinates":{"lng":151.25075,"lat":-33.95554}},{"name":"Maleny National Park","coordinates":{"lng":152.7229801,"lat":-26.6682651}},{"name":"Malkumba-Coongie Lakes National Park","coordinates":{"lng":140.157,"lat":-27.2614}},{"name":"Mallanganee National Park","coordinates":{"lng":152.753611111,"lat":-28.919166666}},{"name":"Mallee Cliffs National Park","coordinates":{"lng":142.4677778,"lat":-34.198333333}},{"name":"Mapleton Falls National Park","coordinates":{"lng":152.83888889,"lat":-26.63055556}},{"name":"Mapleton National Park","coordinates":{"lng":151.86472222,"lat":-26.57888889}},{"name":"Mares Forest National Park","coordinates":{"lng":149.9125,"lat":-34.32777778}},{"name":"Maria Creek National Park","coordinates":{"lng":146.068611,"lat":-17.780556}},{"name":"Maria Island National Park","coordinates":{"lng":148.1,"lat":-42.644444}},{"name":"Maria National Park","coordinates":{"lng":152.87333333,"lat":-31.16277778}},{"name":"Mariala National Park","coordinates":{"lng":145.071388888,"lat":-26.029444444}},{"name":"Marramarra National Park","coordinates":{"lng":151.0677778,"lat":-33.531666666}},{"name":"Marrangaroo National Park","coordinates":{"lng":150.08055556,"lat":-33.47916667}},{"name":"Mary River National Park","coordinates":{"lng":131.285555555,"lat":-12.133333333}},{"name":"Maryland National Park","coordinates":{"lng":152.077777777,"lat":-28.504722222}},{"name":"Matuwa Kurrara Kurrara National Park","coordinates":{"lng":121.680555555,"lat":-25.844444444}},{"name":"Mazeppa National Park","coordinates":{"lng":147.291111111,"lat":-22.231666666}},{"name":"Mebbin National Park","coordinates":{"lng":153.17,"lat":-28.4469}},{"name":"Meroo National Park","coordinates":{"lng":150.397222222,"lat":-35.448333333}},{"name":"Michaelmas and Upolu Cays National Park","coordinates":{"lng":145.9725,"lat":-16.60833333}},{"name":"Middle Brother National Park","coordinates":{"lng":152.671,"lat":-31.6942}},{"name":"Midgegooroo National Park","coordinates":{"lng":116.128611111,"lat":-32.143333333}},{"name":"Millstream Chichester National Park","coordinates":{"lng":117.107,"lat":-21.2733}},{"name":"Millstream Falls National Park","coordinates":{"lng":145.45916667,"lat":-17.63638889}},{"name":"Milyeannup National Park","coordinates":{"lng":115.64,"lat":-34.14}},{"name":"Mimosa Rocks National Park","coordinates":{"lng":149.9511111,"lat":-36.665}},{"name":"Minerva Hills National Park","coordinates":{"lng":148.064166666,"lat":-24.080555555}},{"name":"Minjary National Park","coordinates":{"lng":148.14166667,"lat":-35.25}},{"name":"Mirima National Park","coordinates":{"lng":128.764,"lat":-15.7739}},{"name":"Mitchell River National Park","coordinates":{"lng":147.346,"lat":-37.6556}},{"name":"Mitchell River National Park","coordinates":{"lng":125.708,"lat":-14.8067}},{"name":"Mole Creek Karst National Park","coordinates":{"lng":146.289,"lat":-41.6006}},{"name":"Molle Islands National Park","coordinates":{"lng":148.8575,"lat":-20.376666666}},{"name":"Monga National Park","coordinates":{"lng":149.971,"lat":-35.6631}},{"name":"Mooball National Park","coordinates":{"lng":153.464722222,"lat":-28.388333333}},{"name":"Mooloolah River National Park","coordinates":{"lng":153.080833333,"lat":-26.721666666}},{"name":"Moore River National Park","coordinates":{"lng":115.646,"lat":-31.0867}},{"name":"Moorrinya National Park","coordinates":{"lng":144.941,"lat":-21.3942}},{"name":"Moresby Range National Park","coordinates":{"lng":146.075833333,"lat":-17.5375}},{"name":"Moreton Island National Park","coordinates":{"lng":153.391,"lat":-27.0525}},{"name":"Mornington Peninsula National Park","coordinates":{"lng":144.9279,"lat":-38.441}},{"name":"Morton National Park","coordinates":{"lng":150.2011111,"lat":-35.231666666}},{"name":"Morwell National Park","coordinates":{"lng":146.391,"lat":-38.3664}},{"name":"Mount Aberdeen National Park","coordinates":{"lng":147.921111111,"lat":-20.198611111}},{"name":"Mount Archer National Park","coordinates":{"lng":150.581944444,"lat":-23.325277777}},{"name":"Mount Augustus National Park","coordinates":{"lng":116.844,"lat":-24.3306}},{"name":"Mount Barney National Park","coordinates":{"lng":152.662,"lat":-28.2736}},{"name":"Mount Binga National Park","coordinates":{"lng":151.9456902,"lat":-27.0477035}},{"name":"Mount Buffalo National Park","coordinates":{"lng":146.775,"lat":-36.7383}},{"name":"Mount Chinghee National Park","coordinates":{"lng":152.946666666,"lat":-28.3025}},{"name":"Mount Clunie National Park","coordinates":{"lng":152.52,"lat":-28.324166666}},{"name":"Mount Colosseum National Park","coordinates":{"lng":151.584,"lat":-24.4092}},{"name":"Mount Cook National Park","coordinates":{"lng":145.259166666,"lat":-15.492777777}},{"name":"Mount Coolum National Park","coordinates":{"lng":153.083888888,"lat":-26.563333333}},{"name":"Mount Etna Caves National Park","coordinates":{"lng":150.475277777,"lat":-23.160277777}},{"name":"Mount Frankland National Park","coordinates":{"lng":116.743,"lat":-34.7664}},{"name":"Mount Frankland North National Park","coordinates":{"lng":116.7,"lat":-34.65}},{"name":"Mount Hypipamee National Park","coordinates":{"lng":145.486111111,"lat":-17.425}},{"name":"Mount Imlay National Park","coordinates":{"lng":149.7511111,"lat":-37.165}},{"name":"Mount Jerusalem National Park","coordinates":{"lng":153.3594444,"lat":-28.523333333}},{"name":"Mount Kaputar National Park","coordinates":{"lng":150.142777777,"lat":-30.290555555}},{"name":"Mount Lewis National Park","coordinates":{"lng":145.22277778,"lat":-16.50972222}},{"name":"Mount Lindesay National Park","coordinates":{"lng":117.36666667,"lat":-34.86666667}},{"name":"Mount Mackay National Park","coordinates":{"lng":145.9745192,"lat":-17.9462366}},{"name":"Mount Martin National Park","coordinates":{"lng":148.829444444,"lat":-21.071944444}},{"name":"Mount Nothofagus National Park","coordinates":{"lng":152.633611111,"lat":-28.3175}},{"name":"Mount O'Connell National Park","coordinates":{"lng":150.039444444,"lat":-22.750277777}},{"name":"Mount Pikapene National Park","coordinates":{"lng":152.695,"lat":-29.0111}},{"name":"Mount Pinbarren National Park","coordinates":{"lng":152.854166666,"lat":-26.32}},{"name":"Mount Remarkable National Park","coordinates":{"lng":138.062777777,"lat":-32.781388888}},{"name":"Mount Richmond National Park","coordinates":{"lng":141.425,"lat":-38.2703}},{"name":"Mount Roe National Park","coordinates":{"lng":116.93333333,"lat":-34.76666667}},{"name":"Mount Royal National Park","coordinates":{"lng":151.32361111,"lat":-32.20027778}},{"name":"Mount Spurgeon National Park","coordinates":{"lng":145.2046113,"lat":-16.4490541}},{"name":"Mount Walsh National Park","coordinates":{"lng":152.051944444,"lat":-25.597777777}},{"name":"Mount William National Park","coordinates":{"lng":148.253333,"lat":-40.9375}},{"name":"Mount Windsor National Park","coordinates":{"lng":145.0030615,"lat":-16.2731674}},{"name":"Mowbray National Park","coordinates":{"lng":145.425555555,"lat":-16.580555555}},{"name":"Mudlo National Park","coordinates":{"lng":152.1973801,"lat":-26.0338139}},{"name":"Mummel Gulf National Park","coordinates":{"lng":151.844444444,"lat":-31.3125}},{"name":"Munga-Thirri National Park","coordinates":{"lng":138.24,"lat":-25.1425}},{"name":"Mungada Ridge National Park","coordinates":{"lng":116.9098,"lat":-29.1434}},{"name":"Mungo National Park","coordinates":{"lng":143.0011111,"lat":-33.731666666}},{"name":"Murramarang National Park","coordinates":{"lng":150.3177778,"lat":-35.631666666}},{"name":"Murray - Sunset National Park","coordinates":{"lng":141.484,"lat":-34.7764}},{"name":"Murray River National Park","coordinates":{"lng":140.54,"lat":-34.3869}},{"name":"Murray Valley National Park","coordinates":{"lng":145.027,"lat":-35.7933}},{"name":"Murrumbidgee Valley National Park","coordinates":{"lng":146.201,"lat":-34.715}},{"name":"Murujuga National Park","coordinates":{"lng":116.810972222,"lat":-20.575277777}},{"name":"Mutawintji National Park","coordinates":{"lng":142.381,"lat":-31.1467}},{"name":"Myall Lakes National Park","coordinates":{"lng":152.3677778,"lat":-32.431666666}},{"name":"Nairana National Park","coordinates":{"lng":146.9030094,"lat":-21.6814013}},{"name":"Namadgi National Park","coordinates":{"lng":148.95,"lat":-35.666666666}},{"name":"Nambung National Park","coordinates":{"lng":115.17,"lat":-30.576111111}},{"name":"Nangar National Park","coordinates":{"lng":148.5677778,"lat":-33.398333333}},{"name":"Nangur National Park","coordinates":{"lng":151.9836089,"lat":-26.1198281}},{"name":"Naracoorte Caves National Park","coordinates":{"lng":140.796666666,"lat":-37.036111111}},{"name":"Narawntapu National Park","coordinates":{"lng":146.656666666,"lat":-41.132777777}},{"name":"Narkoola National Park","coordinates":{"lng":147.0285683,"lat":-28.0294773}},{"name":"Narrien Range National Park","coordinates":{"lng":146.940833333,"lat":-22.898055555}},{"name":"Nattai National Park","coordinates":{"lng":150.36,"lat":-34.2894}},{"name":"Neerabup National Park","coordinates":{"lng":115.735,"lat":-31.675}},{"name":"Nerang National Park","coordinates":{"lng":153.303,"lat":-27.9722}},{"name":"New England National Park","coordinates":{"lng":152.5011111,"lat":-30.498333333}},{"name":"Newry Islands National Park","coordinates":{"lng":148.899444444,"lat":-20.851666666}},{"name":"Nicoll Scrub National Park","coordinates":{"lng":153.424,"lat":-28.1894}},{"name":"Nightcap National Park","coordinates":{"lng":153.3344444,"lat":-28.548333333}},{"name":"Niiwalarra Islands National Park","coordinates":{"lng":126.5461,"lat":-13.89}},{"name":"Nitmiluk National Park","coordinates":{"lng":132.423,"lat":-14.3122}},{"name":"Noosa National Park","coordinates":{"lng":153.112777777,"lat":-26.384444444}},{"name":"Northumberland Islands National Park","coordinates":{"lng":149.6798866,"lat":-21.3160397}},{"name":"Nour Nour National Park","coordinates":{"lng":151.4273892,"lat":-25.2992917}},{"name":"Nowendoc National Park","coordinates":{"lng":151.597777777,"lat":-31.532777777}},{"name":"Nuga Nuga National Park","coordinates":{"lng":148.684444444,"lat":-24.965277777}},{"name":"Nullarbor National Park","coordinates":{"lng":129.89905,"lat":-31.4562}},{"name":"Nymboi-Binderay National Park","coordinates":{"lng":152.73194444,"lat":-30.10861111}},{"name":"Nymboida National Park","coordinates":{"lng":152.418055555,"lat":-29.644166666}},{"name":"Oakview National Park","coordinates":{"lng":152.3471775,"lat":-26.1470292}},{"name":"Onkaparinga River National Park","coordinates":{"lng":138.554,"lat":-35.1606}},{"name":"Oolambeyan National Park","coordinates":{"lng":145.273,"lat":-34.7214}},{"name":"Organ Pipes National Park","coordinates":{"lng":144.767,"lat":-37.6686}},{"name":"Orpheus Island National Park","coordinates":{"lng":146.49361111,"lat":-18.61833333}},{"name":"Oxley Wild Rivers National Park","coordinates":{"lng":152.01,"lat":-30.996388888}},{"name":"Palmerston Rocks National Park","coordinates":{"lng":145.898055555,"lat":-17.57}},{"name":"Paluma Range National Park","coordinates":{"lng":146.125,"lat":-18.8717}},{"name":"Paroo-Darling National Park","coordinates":{"lng":143.52028,"lat":-30.67361}},{"name":"Peak Charles National Park","coordinates":{"lng":121.107,"lat":-32.9097}},{"name":"Peak Range National Park","coordinates":{"lng":147.87696019,"lat":-22.48157755}},{"name":"Percy Isles National Park","coordinates":{"lng":150.2723399,"lat":-21.6700919}},{"name":"Pidna National Park","coordinates":{"lng":151.971111111,"lat":-26.891388888}},{"name":"Pilliga CCA Zone 1 National Park","coordinates":{"lng":149.0254,"lat":-30.5466}},{"name":"Pimbee National Park","coordinates":{"lng":114.8718,"lat":-25.5232}},{"name":"Pinnacles National Park","coordinates":{"lng":146.5714554,"lat":-19.4270034}},{"name":"Pioneer Peaks National Park","coordinates":{"lng":148.923888888,"lat":-20.983888888}},{"name":"Pipeclay National Park","coordinates":{"lng":153.005555555,"lat":-25.984444444}},{"name":"Point Nepean National Park","coordinates":{"lng":144.652,"lat":-38.302}},{"name":"Poona National Park","coordinates":{"lng":152.822777777,"lat":-25.588888888}},{"name":"Porcupine Gorge National Park","coordinates":{"lng":144.44027778,"lat":-20.39916667}},{"name":"Porongurup National Park","coordinates":{"lng":117.8866,"lat":-34.6853}},{"name":"Port Campbell National Park","coordinates":{"lng":143.0625,"lat":-38.65027778}},{"name":"Possession Island National Park","coordinates":{"lng":142.398055555,"lat":-10.725277777}},{"name":"Precipice National Park","coordinates":{"lng":150.1043293,"lat":-25.3127853}},{"name":"Prince Regent National Park","coordinates":{"lng":125.2333,"lat":-15.5}},{"name":"Pumicestone National Park","coordinates":{"lng":153.0602274,"lat":-26.9774731}},{"name":"Purnululu National Park","coordinates":{"lng":128.546055,"lat":-17.448789}},{"name":"Ramornie National Park","coordinates":{"lng":152.673333333,"lat":-29.711388888}},{"name":"Ravensbourne National Park","coordinates":{"lng":152.20166667,"lat":-27.35666667}},{"name":"Reliance Creek National Park","coordinates":{"lng":149.099722222,"lat":-21.047777777}},{"name":"Repulse Islands National Park","coordinates":{"lng":148.876111111,"lat":-20.6}},{"name":"Richmond Range National Park","coordinates":{"lng":152.71416667,"lat":-28.59555556}},{"name":"Rocky Cape National Park","coordinates":{"lng":145.535833,"lat":-40.899722}},{"name":"Royal National Park","coordinates":{"lng":151.0511111,"lat":-34.131666666}},{"name":"Rundle Range National Park","coordinates":{"lng":150.973333333,"lat":-23.660555555}},{"name":"Rungulla National Park","coordinates":{"lng":143.4185,"lat":-19.1358}},{"name":"Russell River National Park","coordinates":{"lng":145.939,"lat":-17.2247}},{"name":"Saltwater National Park","coordinates":{"lng":152.5625,"lat":-32.00778}},{"name":"Sandbanks National Park","coordinates":{"lng":143.953333333,"lat":-13.366388888}},{"name":"Sarabah National Park","coordinates":{"lng":153.1231552,"lat":-28.0467125}},{"name":"Savage River National Park","coordinates":{"lng":145.409,"lat":-41.3539}},{"name":"Scheyville National Park","coordinates":{"lng":150.8927778,"lat":-33.594166666}},{"name":"Scone Mountain National Park","coordinates":{"lng":150.88,"lat":-32.04027778}},{"name":"Scott National Park","coordinates":{"lng":115.236,"lat":-34.2581}},{"name":"Sea Acres National Park","coordinates":{"lng":152.931,"lat":-31.4639}},{"name":"Serpentine National Park","coordinates":{"lng":116.043333333,"lat":-32.357222222}},{"name":"Seven Mile Beach National Park","coordinates":{"lng":150.7511111,"lat":-34.815}},{"name":"Shannon National Park","coordinates":{"lng":116.365,"lat":-34.6031}},{"name":"Single National Park","coordinates":{"lng":151.411388888,"lat":-29.996944444}},{"name":"Sir James Mitchell National Park","coordinates":{"lng":116.24,"lat":-34.4561}},{"name":"Smith Islands National Park","coordinates":{"lng":149.110555555,"lat":-20.589166666}},{"name":"Snake Range National Park","coordinates":{"lng":147.583611111,"lat":-24.043055555}},{"name":"Snowy River National Park","coordinates":{"lng":148.553,"lat":-37.275}},{"name":"South Bruny National Park","coordinates":{"lng":147.371111,"lat":-43.35}},{"name":"South Cumberland Islands National Park","coordinates":{"lng":149.473611111,"lat":-20.741111111}},{"name":"South East Forest National Park","coordinates":{"lng":149.476,"lat":-36.9872}},{"name":"Southern Moreton Bay Islands National Park","coordinates":{"lng":153.384444444,"lat":-27.718055555}},{"name":"Southwest National Park","coordinates":{"lng":146.133330555,"lat":-42.933330555}},{"name":"Southwood National Park","coordinates":{"lng":150.135555555,"lat":-27.814722222}},{"name":"Springbrook National Park","coordinates":{"lng":153.274167,"lat":-28.14}},{"name":"St Helena Island National Park","coordinates":{"lng":153.23166667,"lat":-27.39333333}},{"name":"Staaten River National Park","coordinates":{"lng":142.679,"lat":-16.2553}},{"name":"Stirling Range National Park","coordinates":{"lng":118.047177,"lat":-34.397718}},{"name":"Stokes National Park","coordinates":{"lng":121.135,"lat":-33.8228}},{"name":"Strzelecki National Park","coordinates":{"lng":148.094722,"lat":-40.219444}},{"name":"Sturt National Park","coordinates":{"lng":141.9677778,"lat":-29.215}},{"name":"Sundown National Park","coordinates":{"lng":151.618611111,"lat":-28.868333333}},{"name":"Swain Reefs National Park","coordinates":{"lng":151.846666666,"lat":-21.239444444}},{"name":"Sydney Harbour National Park","coordinates":{"lng":151.291666666,"lat":-33.813055555}},{"name":"Tallaganda National Park","coordinates":{"lng":149.481388888,"lat":-35.743611111}},{"name":"Tamborine National Park","coordinates":{"lng":153.178333333,"lat":-27.860277777}},{"name":"Tapin Tops National Park","coordinates":{"lng":152.186944444,"lat":-31.663611111}},{"name":"Tarlo River National Park","coordinates":{"lng":149.9177778,"lat":-34.498333333}},{"name":"Tarong National Park","coordinates":{"lng":151.8460028,"lat":-26.8374852}},{"name":"Tarra-Bulga National Park","coordinates":{"lng":146.58,"lat":-38.4417}},{"name":"Tasman National Park","coordinates":{"lng":147.976,"lat":-42.8553}},{"name":"Tathra National Park","coordinates":{"lng":115.529,"lat":-29.7769}},{"name":"Terrick Terrick National Park","coordinates":{"lng":144.2282,"lat":-36.1429}},{"name":"Tewantin National Park","coordinates":{"lng":152.9674242,"lat":-26.3797328}},{"name":"The Lakes National Park","coordinates":{"lng":147.742,"lat":-37.9703}},{"name":"The Palms National Park","coordinates":{"lng":151.878611111,"lat":-26.934722222}},{"name":"Thirlmere Lakes National Park","coordinates":{"lng":150.5511111,"lat":-34.215}},{"name":"Three Islands Group National Park","coordinates":{"lng":145.42027778,"lat":-15.11277778}},{"name":"Thrushton National Park","coordinates":{"lng":147.666666666,"lat":-27.763888888}},{"name":"Tilligerry National Park","coordinates":{"lng":151.94944444,"lat":-32.77361111}},{"name":"Timbarra National Park","coordinates":{"lng":152.32166667,"lat":-29.29222222}},{"name":"Tjoritja / West MacDonnell National Park","coordinates":{"lng":132.418,"lat":-23.4364}},{"name":"Tomaree National Park","coordinates":{"lng":152.140833333,"lat":-32.752777777}},{"name":"Tooloom National Park","coordinates":{"lng":152.4427778,"lat":-28.448333333}},{"name":"Toonumbar National Park","coordinates":{"lng":152.7261111,"lat":-28.49}},{"name":"Toorale National Park","coordinates":{"lng":145.401,"lat":-30.265}},{"name":"Topaz Road National Park","coordinates":{"lng":145.699722222,"lat":-17.4}},{"name":"Towarri National Park","coordinates":{"lng":150.073611111,"lat":-31.845833333}},{"name":"Tregole National Park","coordinates":{"lng":147.0675,"lat":-26.489722222}},{"name":"Triunia National Park","coordinates":{"lng":152.903333333,"lat":-26.655833333}},{"name":"Tuart Forest National Park","coordinates":{"lng":115.512,"lat":-33.5519}},{"name":"Tuchekoi National Park","coordinates":{"lng":152.8403143,"lat":-26.3689381}},{"name":"Tully Falls National Park","coordinates":{"lng":145.542511111,"lat":-17.735561111}},{"name":"Tully Gorge National Park","coordinates":{"lng":145.653880555,"lat":-17.757780555}},{"name":"Tunnel Creek National Park","coordinates":{"lng":125.143,"lat":-17.6119}},{"name":"Turon National Park","coordinates":{"lng":149.9344444,"lat":-33.198333333}},{"name":"Turtle Group National Park","coordinates":{"lng":145.20305556,"lat":-14.73611111}},{"name":"Ulidarra National Park","coordinates":{"lng":153.080555555,"lat":-30.250277777}},{"name":"Undara Volcanic National Park","coordinates":{"lng":144.596,"lat":-18.2011}},{"name":"Unnamed WA17519 National Park","coordinates":{"lng":115.9314,"lat":-34.4728}},{"name":"Unnamed WA46400 National Park","coordinates":{"lng":115.1788,"lat":-34.1005}},{"name":"Unnamed WA47688 National Park","coordinates":{"lng":116.2704,"lat":-33.2006}},{"name":"Unnamed WA53843 National Park","coordinates":{"lng":115.6528,"lat":-34.3998}},{"name":"Venman Bushland National Park","coordinates":{"lng":153.20027778,"lat":-27.6275}},{"name":"Vulkathunha-Gammon Ranges National Park","coordinates":{"lng":139.1794,"lat":-30.412580555}},{"name":"Wadbilliga National Park","coordinates":{"lng":149.583333333,"lat":-36.466666666}},{"name":"Wallarah National Park","coordinates":{"lng":151.63,"lat":-33.13}},{"name":"Wallaroo National Park","coordinates":{"lng":151.81671,"lat":-32.6247}},{"name":"Wallingat National Park","coordinates":{"lng":152.43527778,"lat":-32.30111111}},{"name":"Walls of Jerusalem National Park","coordinates":{"lng":146.259,"lat":-41.8689}},{"name":"Walpole-Nornalup National Park","coordinates":{"lng":116.766669444,"lat":-34.983330555}},{"name":"Walyunga National Park","coordinates":{"lng":116.09,"lat":-31.7061}},{"name":"Wandoo National Park","coordinates":{"lng":116.51666667,"lat":-32.06666667}},{"name":"Warby-Ovens National Park","coordinates":{"lng":146.188,"lat":-36.3297}},{"name":"Warlibirri National Park","coordinates":{"lng":126.3598,"lat":-18.2572}},{"name":"Warra National Park","coordinates":{"lng":151.92777778,"lat":-29.99166667}},{"name":"Warrabah National Park","coordinates":{"lng":150.9344444,"lat":-30.531666666}},{"name":"Warren National Park","coordinates":{"lng":115.956,"lat":-34.5006}},{"name":"Warro National Park","coordinates":{"lng":151.710833333,"lat":-24.648333333}},{"name":"Warrumbungle National Park","coordinates":{"lng":149.008055555,"lat":-31.292222222}},{"name":"Washpool National Park","coordinates":{"lng":152.3344444,"lat":-29.365}},{"name":"Watagans National Park","coordinates":{"lng":151.393055555,"lat":-33.005}},{"name":"Watarrka National Park","coordinates":{"lng":131.632,"lat":-24.2517}},{"name":"Watheroo National Park","coordinates":{"lng":115.879,"lat":-30.24}},{"name":"Waychinicup National Park","coordinates":{"lng":118.37222222,"lat":-34.87722222}},{"name":"Weddin Mountains National Park","coordinates":{"lng":148.0011111,"lat":-33.998333333}},{"name":"Welford National Park","coordinates":{"lng":143.43388889,"lat":-25.05861111}},{"name":"Wellington National Park","coordinates":{"lng":115.947761111,"lat":-33.435861111}},{"name":"Werakata National Park","coordinates":{"lng":151.4177778,"lat":-32.848333333}},{"name":"Werrikimbe National Park","coordinates":{"lng":152.2261111,"lat":-31.198333333}},{"name":"West Cape Howe National Park","coordinates":{"lng":117.593,"lat":-35.1061}},{"name":"West Cooroy National Park","coordinates":{"lng":152.8393,"lat":-26.4815}},{"name":"West Hill National Park","coordinates":{"lng":149.486111111,"lat":-21.830277777}},{"name":"Whicher National Park","coordinates":{"lng":115.48,"lat":-33.94}},{"name":"White Mountains National Park","coordinates":{"lng":144.96666667,"lat":-20.54111111}},{"name":"Whitsunday Islands National Park","coordinates":{"lng":148.874166666,"lat":-20.060277777}},{"name":"Wickham National Park","coordinates":{"lng":153.162708,"lat":-27.833764}},{"name":"Wietalaba National Park","coordinates":{"lng":151.209933,"lat":-24.284832}},{"name":"Wild Cattle Island National Park","coordinates":{"lng":151.384444444,"lat":-23.958333333}},{"name":"Willandra National Park","coordinates":{"lng":145.5011111,"lat":-33.498333333}},{"name":"Willi Willi National Park","coordinates":{"lng":152.3983333,"lat":-31.073333333}},{"name":"William Bay National Park","coordinates":{"lng":117.235,"lat":-35.02638889}},{"name":"Wilsons Promontory National Park","coordinates":{"lng":146.394,"lat":-39.0133}},{"name":"Wiltshire-Butler National Park","coordinates":{"lng":115.4953,"lat":-34.030561111}},{"name":"Windjana Gorge National Park","coordinates":{"lng":124.976,"lat":-17.4283}},{"name":"Witjira National Park","coordinates":{"lng":135.63,"lat":-26.3717}},{"name":"Woko National Park","coordinates":{"lng":151.7511111,"lat":-31.748333333}},{"name":"Wolfe Creek Meteorite Crater National Park","coordinates":{"lng":127.794444444,"lat":-19.173611111}},{"name":"Wollemi National Park","coordinates":{"lng":150.3344444,"lat":-32.998333333}},{"name":"Wollumbin National Park","coordinates":{"lng":153.268611111,"lat":-28.389722222}},{"name":"Wondul Range National Park","coordinates":{"lng":151.022,"lat":-28.0633}},{"name":"Wongi National Park","coordinates":{"lng":152.2711947,"lat":-25.5367047}},{"name":"Woocoo National Park","coordinates":{"lng":152.3282156,"lat":-25.6378718}},{"name":"Wooditjup National Park","coordinates":{"lng":115.11,"lat":-33.93}},{"name":"Woolooma National Park","coordinates":{"lng":151.2675,"lat":-32.05472222}},{"name":"Woomargama National Park","coordinates":{"lng":147.485,"lat":-35.8714}},{"name":"Woondum National Park","coordinates":{"lng":152.8117685,"lat":-26.2846796}},{"name":"Wooroonooran National Park","coordinates":{"lng":145.820277777,"lat":-17.391111111}},{"name":"Woowoonga National Park","coordinates":{"lng":152.1197115,"lat":-25.4925625}},{"name":"Worimi National Park","coordinates":{"lng":151.917888888,"lat":-32.8152}},{"name":"Woroon National Park","coordinates":{"lng":151.7645339,"lat":-26.0701744}},{"name":"Wrattens National Park","coordinates":{"lng":152.3375141,"lat":-26.2912665}},{"name":"Wyperfeld National Park","coordinates":{"lng":141.877,"lat":-35.3892}},{"name":"Wyrrabalong National Park","coordinates":{"lng":151.4844444,"lat":-33.398333333}},{"name":"Yabbra National Park","coordinates":{"lng":152.510833333,"lat":-29.944166666}},{"name":"Yalgorup National Park","coordinates":{"lng":115.672,"lat":-32.8572}},{"name":"Yanchep National Park","coordinates":{"lng":115.690833333,"lat":-31.560555555}},{"name":"Yanchep National Park Precinct","coordinates":{"lng":115.682713,"lat":-31.545799}},{"name":"Yanga National Park","coordinates":{"lng":143.583,"lat":-34.65}},{"name":"Yanununbeyan National Park","coordinates":{"lng":149.40833333,"lat":-35.52555556}},{"name":"Yarrahapinni Wetlands National Park","coordinates":{"lng":152.97277778,"lat":-30.89638889}},{"name":"Yarriabini National Park","coordinates":{"lng":152.930688888,"lat":-30.8052}},{"name":"Yelverton National Park","coordinates":{"lng":115.08,"lat":-33.74}},{"name":"Yengo National Park","coordinates":{"lng":150.9113889,"lat":-33.014722222}},{"name":"Yungaburra National Park","coordinates":{"lng":145.570833333,"lat":-17.287777777}},{"name":"Yuraygir National Park","coordinates":{"lng":153.2677778,"lat":-29.815}},{"name":"Yuwi Paree Toolkoon National Park","coordinates":{"lng":149.264722222,"lat":-21.175277777}}],"IND":[{"name":"Anaimalai Tiger Reserve","coordinates":{"lng":77.125,"lat":10.366944444}},{"name":"Anamudi Shola National Park","coordinates":{"lng":77.08333333,"lat":10.20833333}},{"name":"Balpakram National Park","coordinates":{"lng":90.75,"lat":25.5}},{"name":"Bandhavgarh National Park","coordinates":{"lng":80.96194444,"lat":23.69944444}},{"name":"Bandipur National Park","coordinates":{"lng":76.627222,"lat":11.664444}},{"name":"Bannerghatta National Park","coordinates":{"lng":77.57555556,"lat":12.80083333}},{"name":"Betla National Park","coordinates":{"lng":84.1901,"lat":23.8878}},{"name":"Bhagwan Mahaveer Sanctuary and Mollem National Park","coordinates":{"lng":74.25861111,"lat":15.37361111}},{"name":"Bhitarkanika National Park","coordinates":{"lng":86.9341,"lat":20.6625}},{"name":"Blackbuck National Park","coordinates":{"lng":72,"lat":22.03333333}},{"name":"Campbell Bay National Park","coordinates":{"lng":93.76194444,"lat":7.11277778}},{"name":"Chandoli National Park","coordinates":{"lng":73.775,"lat":17.19166667}},{"name":"Clouded Leopard National Park","coordinates":{"lng":91.32254444,"lat":23.66822222}},{"name":"Dachigam National Park","coordinates":{"lng":75.02,"lat":34.14}},{"name":"Dandeli National Park","coordinates":{"lng":74.36,"lat":14.99}},{"name":"Dehing Patkai National Park","coordinates":{"lng":95.526,"lat":27.331}},{"name":"Desert National Park","coordinates":{"lng":70.516666666,"lat":26.316666666}},{"name":"Dibru-Saikhowa National Park","coordinates":{"lng":95.340294,"lat":27.649841}},{"name":"Dudhwa National Park","coordinates":{"lng":80.699263,"lat":28.470872}},{"name":"Eravikulam National Park","coordinates":{"lng":77.083,"lat":10.2}},{"name":"Galathea National Park","coordinates":{"lng":93.833,"lat":6.923}},{"name":"Gir Forest","coordinates":{"lng":70.79667,"lat":21.13556}},{"name":"Gorumara National Park","coordinates":{"lng":88.8,"lat":26.7}},{"name":"Govind Pashu Vihar National Park and Sanctuary","coordinates":{"lng":78.29,"lat":31.1}},{"name":"Grass Hills National Park","coordinates":{"lng":76.9856427,"lat":10.3410227}},{"name":"Great Himalayan National Park","coordinates":{"lng":77.951021,"lat":31.804288}},{"name":"Gugamal National Park","coordinates":{"lng":77.14861111,"lat":21.40555556}},{"name":"Guindy National Park","coordinates":{"lng":80.23079,"lat":13.00259}},{"name":"Gulf of Mannar Marine National Park","coordinates":{"lng":79.4725,"lat":9.1375}},{"name":"Guru Ghasidas - Tamor Pingla Tiger Reserve","coordinates":{"lng":82.471944444,"lat":23.601944444}},{"name":"Hazaribagh Wildlife Sanctuary","coordinates":{"lng":85.36,"lat":24.1474}},{"name":"Hemis National Park","coordinates":{"lng":77.433333333,"lat":33.983333333}},{"name":"Inderkilla National Park","coordinates":{"lng":77.41,"lat":32.23}},{"name":"Indravati National Park","coordinates":{"lng":81,"lat":19.33333333}},{"name":"Jaldapara National Park","coordinates":{"lng":89.3775,"lat":26.628611}},{"name":"Jim Corbett National Park","coordinates":{"lng":78.93333333,"lat":29.53333333}},{"name":"Kalesar National Park","coordinates":{"lng":77.55194444,"lat":30.33194444}},{"name":"Kali Tiger Reserve","coordinates":{"lng":74.38333333,"lat":15.01666667}},{"name":"Kanger Ghati National Park","coordinates":{"lng":82.011,"lat":18.832}},{"name":"Kanha National Park","coordinates":{"lng":80.645,"lat":22.2275}},{"name":"Karian Shola National Park","coordinates":{"lng":77.08333333,"lat":10.38333333}},{"name":"Karimpuzha National Park","coordinates":{"lng":76.42361111,"lat":11.275}},{"name":"Kasu Brahmananda Reddy National Park","coordinates":{"lng":78.41,"lat":17.42}},{"name":"Kaziranga National Park","coordinates":{"lng":93.35,"lat":26.666666666}},{"name":"Keibul Lamjao National Park","coordinates":{"lng":93.8402,"lat":24.4856}},{"name":"Kevladev National Park","coordinates":{"lng":77.516667,"lat":27.166667}},{"name":"Khangchendzonga National Park","coordinates":{"lng":88.3123,"lat":27.6563}},{"name":"Khirganga National Park","coordinates":{"lng":77.510227,"lat":31.99343}},{"name":"Kishtwar National Park","coordinates":{"lng":75.99277778,"lat":33.60111111}},{"name":"Kudremukh","coordinates":{"lng":75.268552777,"lat":13.129511111}},{"name":"Kudremukh National Park","coordinates":{"lng":75.2,"lat":13.25}},{"name":"Kutch Bustard Sanctuary","coordinates":{"lng":68.714,"lat":23.219}},{"name":"Madhav National Park","coordinates":{"lng":77.75,"lat":25.46666667}},{"name":"Mahatma Gandhi Marine National Park","coordinates":{"lng":92.65694444,"lat":11.57055556}},{"name":"Mahavir Harina Vanasthali National Park","coordinates":{"lng":78.58583333,"lat":17.34}},{"name":"Manas National Park","coordinates":{"lng":90.933333333,"lat":26.716666666}},{"name":"Mandla Plant Fossils National Park","coordinates":{"lng":80.61361111,"lat":23.11027778}},{"name":"Marine National Park, Gulf of Kutch","coordinates":{"lng":69.6167,"lat":22.4667}},{"name":"Mathikettan Shola National Park","coordinates":{"lng":77.13333333,"lat":10.03333333}},{"name":"Middle Button Island National Park","coordinates":{"lng":93.02611111,"lat":12.27555556}},{"name":"Mouling National Park","coordinates":{"lng":94.86666667,"lat":28.58333333}},{"name":"Mount Manipur National Park","coordinates":{"lng":92.7571,"lat":11.8074}},{"name":"Mrugavani National Park","coordinates":{"lng":78.34111111,"lat":17.35777778}},{"name":"Mudumalai National Park","coordinates":{"lng":76.5,"lat":11.6}},{"name":"Mukurthi National Park","coordinates":{"lng":76.475,"lat":11.266666666}},{"name":"Murlen National Park","coordinates":{"lng":93.3,"lat":23.61694444}},{"name":"Nagarhole National Park","coordinates":{"lng":76.151111111,"lat":12.06}},{"name":"Namdapha National Park","coordinates":{"lng":96.110294,"lat":27.649841}},{"name":"Nameri National Park","coordinates":{"lng":92.79,"lat":27.01}},{"name":"Nanda Devi and Valley of Flowers National Parks","coordinates":{"lng":79.66667,"lat":30.71667}},{"name":"Nanda Devi National Park","coordinates":{"lng":79.849722222,"lat":30.418611111}},{"name":"Nawegaon National Park","coordinates":{"lng":80.16666667,"lat":20.93333333}},{"name":"Neora Valley National Park","coordinates":{"lng":88.7,"lat":27.06}},{"name":"Nokrek National Park","coordinates":{"lng":90.11666667,"lat":25.53333333}},{"name":"North Button Island National Park","coordinates":{"lng":93.06805556,"lat":12.31722222}},{"name":"Ntangki National Park","coordinates":{"lng":93.45,"lat":25.56}},{"name":"Orang National Park","coordinates":{"lng":92.36,"lat":26.61}},{"name":"Palani Hills Wildlife Sanctuary and National Park","coordinates":{"lng":77.52388889,"lat":10.24527778}},{"name":"Pampadum Shola National Park","coordinates":{"lng":77.26694444,"lat":10.14388889}},{"name":"Panna National Park","coordinates":{"lng":80.01022222,"lat":24.73044444}},{"name":"Papikonda National Park","coordinates":{"lng":81.4856,"lat":17.483}},{"name":"Pench National Park","coordinates":{"lng":79.3033,"lat":21.6716}},{"name":"Pench Tiger Reserve","coordinates":{"lng":79.3033,"lat":21.6716}},{"name":"Periyar National Park","coordinates":{"lng":77.18,"lat":9.5775}},{"name":"Phawngpui National Park","coordinates":{"lng":93.05,"lat":22.66666667}},{"name":"Pin Valley National Park","coordinates":{"lng":77.588888888,"lat":31.574166666}},{"name":"Qazinag National Park","coordinates":{"lng":74.033333,"lat":34.166667}},{"name":"Raimona National Park","coordinates":{"lng":89.97611,"lat":26.65972}},{"name":"Rajaji National Park","coordinates":{"lng":78.03333333,"lat":30.08333333}},{"name":"Rajbari National Park","coordinates":{"lng":91.4,"lat":23.28}},{"name":"Rajiv Gandhi National Park","coordinates":{"lng":78.560833333,"lat":14.726944444}},{"name":"Rani Jhansi Marine National Park","coordinates":{"lng":92.66666667,"lat":11.78333333}},{"name":"Ranthambore National Park","coordinates":{"lng":76.50257,"lat":26.01733}},{"name":"Saddle Peak National Park","coordinates":{"lng":93.00555556,"lat":13.15861111}},{"name":"Salim Ali National Park","coordinates":{"lng":74.804,"lat":34.081}},{"name":"Sanjay Gandhi National Park","coordinates":{"lng":72.9167,"lat":19.25}},{"name":"Sanjay National Park","coordinates":{"lng":81.655277777,"lat":23.968611111}},{"name":"Sariska Tiger Reserve","coordinates":{"lng":76.43694444,"lat":27.3175}},{"name":"Satpura National Park","coordinates":{"lng":78.231,"lat":22.495}},{"name":"Shirui National Park","coordinates":{"lng":94.23083333,"lat":24.23083333}},{"name":"Sikhna Jwhwlao National Park","coordinates":{"lng":90.295891666,"lat":26.716966666}},{"name":"Silent Valley National Park","coordinates":{"lng":76.466666666,"lat":11.133333333}},{"name":"Simbalbara National Park","coordinates":{"lng":77.473,"lat":30.439}},{"name":"Simlipal National Park","coordinates":{"lng":86.33,"lat":21.75}},{"name":"Singalila National Park","coordinates":{"lng":88.06666667,"lat":27.11666667}},{"name":"South Button Island National Park","coordinates":{"lng":93.02027778,"lat":12.22388889}},{"name":"Sri Venkateswara National Park","coordinates":{"lng":79.3378,"lat":13.7511}},{"name":"Sultanpur National Park","coordinates":{"lng":76.8899,"lat":28.4623}},{"name":"Sundarbans National Park","coordinates":{"lng":88.75,"lat":21.75}},{"name":"Tadoba-Andhari Tiger Reserve","coordinates":{"lng":79.42528,"lat":20.24873}},{"name":"Valley of Flowers National Park","coordinates":{"lng":79.6175,"lat":30.73}},{"name":"Valmiki National Park","coordinates":{"lng":84.1793,"lat":27.0652}},{"name":"Van Vihar National Park","coordinates":{"lng":77.36977,"lat":23.22948}},{"name":"Vansda National Park","coordinates":{"lng":73.4667,"lat":20.7333}}],"PHL":[{"name":"Aurora Memorial National Park","coordinates":{"lng":121.33333333,"lat":15.66666667}},{"name":"Balbalasang-Balbalan National Park","coordinates":{"lng":121.1,"lat":17.45}},{"name":"Bangan Hill National Park","coordinates":{"lng":121.316667,"lat":16.416667}},{"name":"Basilan National Park","coordinates":{"lng":122.06102,"lat":6.5907}},{"name":"Bataan National Park","coordinates":{"lng":120.41666667,"lat":14.68333333}},{"name":"Biak-na-Bato National Park","coordinates":{"lng":121.084,"lat":15.1201}},{"name":"Bulabog Putian National Park","coordinates":{"lng":122.661,"lat":11.0399}},{"name":"Caramoan National Park","coordinates":{"lng":123.88333333,"lat":13.8}},{"name":"Cassamata Hill National Park","coordinates":{"lng":120.621,"lat":17.5912}},{"name":"Fuyot Springs National Park","coordinates":{"lng":121.964,"lat":17.1776}},{"name":"Guadalupe Mabugnao Mainit Hot Spring National Park","coordinates":{"lng":123.6,"lat":10.1336}},{"name":"Hundred Islands National Park","coordinates":{"lng":120.033333333,"lat":16.2}},{"name":"Kalbario-Patapat National Park","coordinates":{"lng":120.91666667,"lat":18.53333333}},{"name":"Kuapnit Balinsasayao National Park","coordinates":{"lng":124.927,"lat":10.6347}},{"name":"Lake Butig National Park","coordinates":{"lng":124.48333333,"lat":7.98333333}},{"name":"Lake Naujan National Park","coordinates":{"lng":121.16666667,"lat":13.16666667}},{"name":"Libmanan Caves National Park","coordinates":{"lng":122.983333,"lat":13.683333}},{"name":"MacArthur Landing Memorial National Park","coordinates":{"lng":125.012222222,"lat":11.172222222}},{"name":"Mado Hot Spring National Park","coordinates":{"lng":124.35,"lat":7.26666667}},{"name":"Mayon Volcano Natural Park","coordinates":{"lng":123.685,"lat":13.25666667}},{"name":"Mount Arayat National Park","coordinates":{"lng":120.742,"lat":15.2}},{"name":"Mount Balatukan Range Natural Park","coordinates":{"lng":124.939194444,"lat":8.798861111}},{"name":"Mount Dajo National Park","coordinates":{"lng":121.1,"lat":5.966666666}},{"name":"Mount Data National Park","coordinates":{"lng":120.84098,"lat":16.87753}},{"name":"Mount Pulag National Park","coordinates":{"lng":120.99805556,"lat":16.58333333}},{"name":"Mounts Banahaw–San Cristobal Protected Landscape","coordinates":{"lng":121.48583333,"lat":14.05361111}},{"name":"Mounts Iglit–Baco National Park","coordinates":{"lng":121.21666667,"lat":12.9}},{"name":"Mounts-Palay-Palay-Mataas-Na-Gulod National Park","coordinates":{"lng":120.66666667,"lat":14.25}},{"name":"Northern Luzon Heroes Hill National Park","coordinates":{"lng":120.46,"lat":17.4793}},{"name":"Pagsanjan Gorge National Park","coordinates":{"lng":121.46369444,"lat":14.26680556}},{"name":"Pantuwaraya Lake National Park","coordinates":{"lng":124.48333333,"lat":7.98333333}},{"name":"Puerto Princesa Subterranean River National Park","coordinates":{"lng":118.916666666,"lat":10.166666666}},{"name":"Quezon Protected Landscape","coordinates":{"lng":121.75,"lat":14.03333333}},{"name":"Rungkunan National Park","coordinates":{"lng":124.68333333,"lat":7.98333333}},{"name":"Sacred Mountain National Park","coordinates":{"lng":124.29633,"lat":8.02121}},{"name":"Salikata National Park","coordinates":{"lng":124.6,"lat":7.95}},{"name":"Sohoton Natural Bridge National Park","coordinates":{"lng":125.164,"lat":11.3605}},{"name":"St. Paul Subterranean River National Park","coordinates":{"lng":118.92717,"lat":10.19237}},{"name":"Tirad Pass National Park","coordinates":{"lng":120.633,"lat":17.0414}}],"NPL":[{"name":"Banke National Park","coordinates":{"lng":81.9128,"lat":28.1911}},{"name":"Bardiya National Park","coordinates":{"lng":81.47,"lat":28.47}},{"name":"Chhayanath National Park","coordinates":{"lng":82.55,"lat":29.75}},{"name":"Chitwan National Park","coordinates":{"lng":84.333333,"lat":27.5}},{"name":"Khaptad national park","coordinates":{"lng":80.99,"lat":29.27}},{"name":"Langtang National Park","coordinates":{"lng":85.5531,"lat":28.1738}},{"name":"Makalu Barun National Park","coordinates":{"lng":87.11362679,"lat":27.75693134}},{"name":"Parsa National Park","coordinates":{"lng":84.33333333,"lat":27.46666667}},{"name":"Rara National Park","coordinates":{"lng":82.072222222,"lat":29.491666666}},{"name":"Sagarmatha National Park","coordinates":{"lng":86.693033,"lat":27.891069}},{"name":"Shey Phoksundo National Park","coordinates":{"lng":82.8456,"lat":29.3581}},{"name":"Shivapuri Nagarjun National Park","coordinates":{"lng":85.39,"lat":27.795}},{"name":"Shuklaphanta National Park","coordinates":{"lng":80.229,"lat":28.8402}}],"ISR":[{"name":"Alexander","coordinates":{"lng":34.8653,"lat":32.3958}},{"name":"Arbel National Park and Nature Reserve","coordinates":{"lng":35.466944444,"lat":32.8275}},{"name":"Bar'am National Park","coordinates":{"lng":35.415833333,"lat":33.043888888}},{"name":"Beit Guvrin National Park","coordinates":{"lng":34.89833333,"lat":31.61305556}},{"name":"Belvoir Fortress","coordinates":{"lng":35.521388888,"lat":32.595555555}},{"name":"Beth Alpha synagogue","coordinates":{"lng":35.432357,"lat":32.521702}},{"name":"Capernaum National Park","coordinates":{"lng":35.5786,"lat":32.8831}},{"name":"Capernaum synagogue","coordinates":{"lng":35.575416,"lat":32.8810311}},{"name":"Castel National Park","coordinates":{"lng":35.144444444,"lat":31.796666666}},{"name":"Chorazin","coordinates":{"lng":35.563888888,"lat":32.911388888}},{"name":"Dora","coordinates":{"lng":34.9163642,"lat":32.6174277}},{"name":"Eilat's Coral Beach","coordinates":{"lng":34.922,"lat":29.508}},{"name":"Ein Avdat","coordinates":{"lng":34.76638889,"lat":30.82638889}},{"name":"Ein Hemed","coordinates":{"lng":35.125494,"lat":31.796189}},{"name":"Ein Hinya","coordinates":{"lng":35.1566845,"lat":31.7435417}},{"name":"Emek Tzurim National Park","coordinates":{"lng":35.24333333,"lat":31.78944444}},{"name":"Eshkol National Park","coordinates":{"lng":34.4895,"lat":31.3081}},{"name":"Gezer","coordinates":{"lng":34.919166666,"lat":31.859166666}},{"name":"Hermon Stream Nature Reserve","coordinates":{"lng":35.688888888,"lat":33.245555555}},{"name":"Hurshat Tal","coordinates":{"lng":35.62934722,"lat":33.22048333}},{"name":"Jerusalem Walls National Park","coordinates":{"lng":35.230975,"lat":31.78243889}},{"name":"Jotapata","coordinates":{"lng":35.162496,"lat":32.501283}},{"name":"Kursi","coordinates":{"lng":35.650377777,"lat":32.826086111}},{"name":"Ma'ayan Harod National Park","coordinates":{"lng":35.351111111,"lat":32.548333333}},{"name":"Mamshit","coordinates":{"lng":35.063889,"lat":31.026111}},{"name":"Migdal Afek","coordinates":{"lng":34.95694444,"lat":32.08083333}},{"name":"Mount Arbel","coordinates":{"lng":35.498611111,"lat":32.824166666}},{"name":"Mount Carmel National Park","coordinates":{"lng":35.00235556,"lat":32.75544722}},{"name":"Nitzana","coordinates":{"lng":34.434166666,"lat":30.875555555}},{"name":"Palmachim beach","coordinates":{"lng":34.700833333,"lat":31.930277777}},{"name":"Ramat Gan National Park","coordinates":{"lng":34.82580278,"lat":32.049225}},{"name":"Saint Peter Church, Capernaum","coordinates":{"lng":35.57537,"lat":32.88056}},{"name":"Sepphoris","coordinates":{"lng":35.279166666,"lat":32.753055555}},{"name":"Tel Ashkelon National Park","coordinates":{"lng":34.549722222,"lat":31.661666666}},{"name":"Tel Be'er Sheva","coordinates":{"lng":34.84013,"lat":31.24482}},{"name":"Yarkon national park","coordinates":{"lng":34.91865,"lat":32.113786}},{"name":"Yehi'am Fortress National Park","coordinates":{"lng":35.2219,"lat":32.9941}},{"name":"Yehudiya Forest Nature Reserve","coordinates":{"lng":35.6897023,"lat":32.939104}}],"ARG":[{"name":"Aconguija National Park","coordinates":{"lng":-65.813987,"lat":-27.191215}},{"name":"Aconquija National Park","coordinates":{"lng":-65.862865336,"lat":-27.292697487}},{"name":"Ansenuza national park","coordinates":{"lng":-62.833333333,"lat":-30.333333333}},{"name":"Baritú National Park","coordinates":{"lng":-64.616667,"lat":-22.583333}},{"name":"Calilegua National Park","coordinates":{"lng":-64.838,"lat":-23.639}},{"name":"Campos del Tuyú National Park","coordinates":{"lng":-56.866666666,"lat":-36.35}},{"name":"Chaco National Park","coordinates":{"lng":-59.66667,"lat":-26.83333}},{"name":"Ciervo de los Pantanos National Park","coordinates":{"lng":-58.8678,"lat":-34.2525}},{"name":"Copo National Park","coordinates":{"lng":-61.88333333,"lat":-25.96666667}},{"name":"El Impenetrable National Park","coordinates":{"lng":-60.9959,"lat":-25.0095}},{"name":"El Leoncito National Park","coordinates":{"lng":-69.333665024,"lat":-31.795809319}},{"name":"El Rey National Park","coordinates":{"lng":-64.63333333,"lat":-24.7}},{"name":"Iberá National Park","coordinates":{"lng":-58.6215364,"lat":-28.2605465}},{"name":"Islas de Santa Fé National Park","coordinates":{"lng":-60.817,"lat":-32.433}},{"name":"Islote Lobos National Park","coordinates":{"lng":-65.058611111,"lat":-41.431944444}},{"name":"Lago Puelo National Park","coordinates":{"lng":-71.683333333,"lat":-42.183333333}},{"name":"Laguna Blanca National Park","coordinates":{"lng":-70.358333333,"lat":-39.041388888}},{"name":"Lanín National Park","coordinates":{"lng":-71.3575,"lat":-40.1603}},{"name":"Lihué Calel National Park","coordinates":{"lng":-65.65,"lat":-37.95}},{"name":"Los Alerces National Park","coordinates":{"lng":-71.89888889,"lat":-42.8075}},{"name":"Los Arrayanes National Park","coordinates":{"lng":-71.61944,"lat":-40.86139}},{"name":"Los Cardones National Park","coordinates":{"lng":-66.18166667,"lat":-25.12533333}},{"name":"Los Glaciares National Park","coordinates":{"lng":-73.234164314,"lat":-50.330530387}},{"name":"Mburucuyá National Park","coordinates":{"lng":-58.00980969,"lat":-27.998622081}},{"name":"Monte León National Park","coordinates":{"lng":-69,"lat":-50.23333333}},{"name":"Nahuel Huapi National Park","coordinates":{"lng":-71.501456621,"lat":-41.003690915}},{"name":"Patagonia National Park","coordinates":{"lng":-71.316944444,"lat":-47.159166666}},{"name":"Perito Moreno National Park","coordinates":{"lng":-72.25055556,"lat":-47.81138889}},{"name":"Río Pilcomayo National Park","coordinates":{"lng":-58.1367,"lat":-25.0644}},{"name":"San Guillermo National Park","coordinates":{"lng":-69.353710734,"lat":-29.242418275}},{"name":"Sierra de las Quijadas National Park","coordinates":{"lng":-67.06416667,"lat":-32.55083333}},{"name":"Tierra del Fuego National Park","coordinates":{"lng":-68.5,"lat":-54.666944444}},{"name":"Traslasierra National Park","coordinates":{"lng":-65.459444,"lat":-31.158333}}],"HRV":[{"name":"Krka National Park","coordinates":{"lng":15.972777777,"lat":43.801944444}},{"name":"Mljet Nacionalni Park","coordinates":{"lng":17.3852,"lat":42.7817}},{"name":"National Park Brijuni","coordinates":{"lng":13.766667,"lat":44.916667}},{"name":"Northern Velebit National Park","coordinates":{"lng":15.00694444,"lat":44.69305556}},{"name":"Paklenica","coordinates":{"lng":15.29022,"lat":44.44359}},{"name":"Risnjak National Park","coordinates":{"lng":14.651,"lat":45.431}}],"CAN":[{"name":"Akami-Uapishkᵘ-KakKasuak-Mealy Mountains National Park Reserve","coordinates":{"lng":-59.3667,"lat":53.4}},{"name":"Aulavik National Park","coordinates":{"lng":-119.919,"lat":73.7003}},{"name":"Auyuittuq National Park","coordinates":{"lng":-66,"lat":67.5}},{"name":"Banff National Park","coordinates":{"lng":-115.55,"lat":51.166666666}},{"name":"Bowen Island National Park Reserve","coordinates":{"lng":-123.3833333,"lat":49.38333333}},{"name":"Bruce Peninsula National Park","coordinates":{"lng":-81.6142,"lat":45.2389}},{"name":"Buffalo National Park","coordinates":{"lng":-110.9,"lat":52.8333}},{"name":"Cape Breton Highlands National Park","coordinates":{"lng":-60.6597,"lat":46.7167}},{"name":"Elk Island National Park","coordinates":{"lng":-112.866,"lat":53.6144}},{"name":"Forillon National Park","coordinates":{"lng":-64.35,"lat":48.9}},{"name":"Fundy National Park","coordinates":{"lng":-64.953888888,"lat":45.595277777}},{"name":"Georgian Bay Islands National Park","coordinates":{"lng":-79.8747,"lat":44.8778}},{"name":"Glacier National Park","coordinates":{"lng":-117.519,"lat":51.3}},{"name":"Grasslands National Park","coordinates":{"lng":-107.51,"lat":49.15}},{"name":"Gros Morne National Park","coordinates":{"lng":-57.738055555,"lat":49.689444444}},{"name":"Gulf Islands National Park Reserve","coordinates":{"lng":-123.447777777,"lat":48.850555555}},{"name":"Gwaii Haanas National Park Reserve and Haida Heritage Site","coordinates":{"lng":-131.471,"lat":52.3892}},{"name":"Ivvavik National Park","coordinates":{"lng":-139.525,"lat":69.5197}},{"name":"Jasper National Park","coordinates":{"lng":-117.9,"lat":52.8}},{"name":"Kejimkujik National Park","coordinates":{"lng":-65.2183,"lat":44.3992}},{"name":"Kluane National Park and Reserve","coordinates":{"lng":-137.829166666,"lat":60.453611111}},{"name":"Kootenay National Park","coordinates":{"lng":-116.049,"lat":50.8831}},{"name":"Kouchibouguac National Park","coordinates":{"lng":-64.9669,"lat":46.8497}},{"name":"Menissawok National Park","coordinates":{"lng":-109.45,"lat":49.7724}},{"name":"Mingan Archipelago National Park Reserve","coordinates":{"lng":-63.829166666,"lat":50.2}},{"name":"Mount Revelstoke National Park","coordinates":{"lng":-118.066,"lat":51.0858}},{"name":"Nááts'įhch'oh National Park Reserve","coordinates":{"lng":-128.25,"lat":62.25}},{"name":"Nahanni National Park Reserve","coordinates":{"lng":-125.852,"lat":61.5971}},{"name":"Nemiskam National Park","coordinates":{"lng":-111.417,"lat":49.5392}},{"name":"Pacific Rim National Park Reserve","coordinates":{"lng":-125.666666666,"lat":48.983333333}},{"name":"Pituamkek National Park Reserve","coordinates":{"lng":-63.787655,"lat":46.61229}},{"name":"Point Pelee National Park","coordinates":{"lng":-82.516666666,"lat":41.966666666}},{"name":"Prince Albert National Park","coordinates":{"lng":-106.37,"lat":53.9633}},{"name":"Prince Edward Island National Park","coordinates":{"lng":-63.075,"lat":46.4167}},{"name":"Pukaskwa National Park","coordinates":{"lng":-85.916666666,"lat":48.25}},{"name":"Qausuittuq National Park","coordinates":{"lng":-101.031111111,"lat":76.124166666}},{"name":"Quttinirpaaq National Park","coordinates":{"lng":-72.216666666,"lat":82.216666666}},{"name":"Sable Island National Park Reserve","coordinates":{"lng":-59.906944444,"lat":43.935277777}},{"name":"Sirmilik National Park","coordinates":{"lng":-80.583333333,"lat":72.833333333}},{"name":"South Okanagan-Similkameen National Park Reserve","coordinates":{"lng":-119.66666667,"lat":49.16666667}},{"name":"Terra Nova National Park","coordinates":{"lng":-53.9281,"lat":48.5306}},{"name":"Thaidene Nëné National Park Reserve","coordinates":{"lng":-108.634444444,"lat":62.7075}},{"name":"Thousand Islands National Park","coordinates":{"lng":-75.955,"lat":44.3525}},{"name":"Torngat Mountains National Park","coordinates":{"lng":-63.696388888,"lat":59.435833333}},{"name":"Tuktut Nogait National Park","coordinates":{"lng":-121.749,"lat":68.8187}},{"name":"Ukkusiksalik National Park","coordinates":{"lng":-87.895277777,"lat":65.498611111}},{"name":"Vuntut National Park","coordinates":{"lng":-140.048,"lat":68.3069}},{"name":"Wapusk National Park","coordinates":{"lng":-93.3714,"lat":57.7739}},{"name":"Waterton Lakes National Park","coordinates":{"lng":-113.933333333,"lat":49.05}},{"name":"Wawaskesy National Park","coordinates":{"lng":-110.455,"lat":50.476}},{"name":"Wood Buffalo National Park","coordinates":{"lng":-112.983,"lat":59.3833}},{"name":"Yoho National Park","coordinates":{"lng":-116.487,"lat":51.3953}}],"MYS":[{"name":"Bako National Park","coordinates":{"lng":110.466667,"lat":1.716667}},{"name":"Batang Ai National Park","coordinates":{"lng":111.88333333,"lat":1.13333333}},{"name":"Belum Temenggor Forest Reserve","coordinates":{"lng":101.38,"lat":5.67}},{"name":"Crocker Range National Park","coordinates":{"lng":116.083333333,"lat":5.583333333}},{"name":"Endau-Rompin National Park","coordinates":{"lng":103.273,"lat":2.43892}},{"name":"Gunung Gading National Park","coordinates":{"lng":109.84583,"lat":1.690549}},{"name":"Gunung Ledang National Park","coordinates":{"lng":102.6179,"lat":2.3417}},{"name":"Gunung Mulu National Park","coordinates":{"lng":114.8125,"lat":4.0425}},{"name":"Kinabalu Park","coordinates":{"lng":116.65,"lat":6.15}},{"name":"Kinabatangan Wildlife Sanctuary","coordinates":{"lng":118.572611,"lat":5.626139}},{"name":"Kubah National Park","coordinates":{"lng":110.194416666,"lat":1.597611111}},{"name":"Kuching Wetlands National Park","coordinates":{"lng":110.25,"lat":1.68333333}},{"name":"Lambir Hills National Park","coordinates":{"lng":114.03,"lat":4.213}},{"name":"Loagan Bunut National Park","coordinates":{"lng":114.22,"lat":3.77}},{"name":"Maludam National Park","coordinates":{"lng":111.092,"lat":1.549}},{"name":"Miri-Sibuti Coral Reef National Park","coordinates":{"lng":113.85,"lat":4.31667}},{"name":"Penang National Park","coordinates":{"lng":100.2039,"lat":5.4607}},{"name":"Pulau Tiga National Park","coordinates":{"lng":115.65,"lat":5.716666666}},{"name":"Pulong Tau National Park","coordinates":{"lng":115.33,"lat":3.593}},{"name":"Similajau National Park","coordinates":{"lng":113.233,"lat":3.424}},{"name":"Tanjung Datu National Park","coordinates":{"lng":109.641444444,"lat":2.058083333}},{"name":"Tanjung Piai National Park","coordinates":{"lng":103.5101,"lat":1.2683}},{"name":"Tawau Hills National Park","coordinates":{"lng":117.9,"lat":4.4}},{"name":"Tunku Abdul Rahman National Park","coordinates":{"lng":116,"lat":5.96667}},{"name":"Turtle Islands National Park","coordinates":{"lng":118.054,"lat":6.14944}},{"name":"Usun Apau National Park","coordinates":null}],"USA":[{"name":"Arches National Park","coordinates":{"lng":-109.54,"lat":38.728055555}},{"name":"Badlands National Park","coordinates":{"lng":-102.5,"lat":43.75}},{"name":"Battery Kemble Park","coordinates":{"lng":-77.095555555,"lat":38.930277777}},{"name":"Biscayne National Park","coordinates":{"lng":-80.18096924,"lat":25.50185493}},{"name":"Bryce Canyon National Park","coordinates":{"lng":-112.17,"lat":37.64}},{"name":"Canyonlands National Park","coordinates":{"lng":-109.76,"lat":38.1669}},{"name":"Capitol Reef National Park","coordinates":{"lng":-111.167,"lat":38.2}},{"name":"Carlsbad Caverns National Park","coordinates":{"lng":-104.443888888,"lat":32.175277777}},{"name":"Channel Islands National Park","coordinates":{"lng":-119.64,"lat":33.66}},{"name":"Congaree National Park","coordinates":{"lng":-80.783333333,"lat":33.783333333}},{"name":"Cuyahoga Valley National Park","coordinates":{"lng":-81.549722222,"lat":41.241666666}},{"name":"Establishment of Grand Teton National Park","coordinates":null},{"name":"Everglades National Park","coordinates":{"lng":-80.6875,"lat":25.3125}},{"name":"Fort Dupont Park","coordinates":{"lng":-76.94955825,"lat":38.877312888}},{"name":"Fort Slocum Park","coordinates":{"lng":-77.013888888,"lat":38.960277777}},{"name":"Fort Stevens","coordinates":{"lng":-77.028888888,"lat":38.964444444}},{"name":"Glacier Bay National Park and Preserve","coordinates":{"lng":-137,"lat":58.7}},{"name":"Glacier National Park","coordinates":{"lng":-113.8,"lat":48.755}},{"name":"Grand Canyon National Park","coordinates":{"lng":-112.122,"lat":36.0553}},{"name":"Grand Teton National Park","coordinates":{"lng":-110.700833333,"lat":43.833333333}},{"name":"Great Basin National Park","coordinates":{"lng":-114.2197,"lat":39.0058}},{"name":"Great Smoky Mountains National Park","coordinates":{"lng":-83.425,"lat":35.611111111}},{"name":"Guadalupe Mountains National Park","coordinates":{"lng":-104.866666666,"lat":31.916666666}},{"name":"Haleakalā National Park","coordinates":{"lng":-156.15515,"lat":20.7204}},{"name":"Hawaiʻi Volcanoes National Park","coordinates":{"lng":-155.12361,"lat":19.40083}},{"name":"Hot Springs National Park","coordinates":{"lng":-93.053611111,"lat":34.513611111}},{"name":"Indiana Dunes National Park","coordinates":{"lng":-87.108055555,"lat":41.648055555}},{"name":"Isle Royale National Park","coordinates":{"lng":-88.9092899,"lat":47.9958654}},{"name":"Katmai National Park and Preserve","coordinates":{"lng":-155,"lat":58.5}},{"name":"Kenai Fjords National Park","coordinates":{"lng":-149.9875,"lat":59.917777777}},{"name":"Kings Canyon National Park","coordinates":{"lng":-118.672861111,"lat":36.789280555}},{"name":"Kobuk Valley National Park","coordinates":{"lng":-159.19889,"lat":67.35336}},{"name":"Laramie Ranger District (Wyoming, U.S.)","coordinates":null},{"name":"Lassen Volcanic National Park","coordinates":{"lng":-121.4275,"lat":40.498055555}},{"name":"Mackinac National Park","coordinates":{"lng":-84.6167,"lat":45.8667}},{"name":"Mammoth Cave National Park","coordinates":{"lng":-86.101111111,"lat":37.186944444}},{"name":"Mesa Verde National Park","coordinates":{"lng":-108.494444,"lat":37.260375}},{"name":"National Park of American Samoa","coordinates":{"lng":-170.68333333,"lat":-14.25833333}},{"name":"National Park of the United States","coordinates":null},{"name":"National Vigilance Park","coordinates":{"lng":-76.7748,"lat":39.1119}},{"name":"North Cascades National Park","coordinates":{"lng":-120.911388888,"lat":48.483055555}},{"name":"North Cascades National Park Complex","coordinates":{"lng":-121,"lat":48.3333}},{"name":"Olympic National Park","coordinates":{"lng":-123.75,"lat":47.7}},{"name":"Petrified Forest National Park","coordinates":{"lng":-109.806,"lat":35.0881}},{"name":"Pinnacles National Park","coordinates":{"lng":-121.167,"lat":36.4869}},{"name":"Redwood National and State Parks","coordinates":{"lng":-124.058333,"lat":41.529167}},{"name":"Rocky Mountain National Park","coordinates":{"lng":-105.6833,"lat":40.35}},{"name":"Sequoia National Park","coordinates":{"lng":-118.772777777,"lat":36.564722222}},{"name":"Shenandoah National Park","coordinates":{"lng":-78.35,"lat":38.5333}},{"name":"Virgin Islands National Park","coordinates":{"lng":-64.933333333,"lat":18.328055555}},{"name":"Voyageurs National Park","coordinates":{"lng":-92.883333333,"lat":48.5}},{"name":"White Sands National Park","coordinates":{"lng":-106.171667,"lat":32.779722}},{"name":"Wind Cave National Park","coordinates":{"lng":-103.47865,"lat":43.55635}},{"name":"Wrangell–St. Elias National Park and Preserve","coordinates":{"lng":-142.953611111,"lat":61.435}},{"name":"Yellowstone National Park","coordinates":{"lng":-110.5,"lat":44.6}},{"name":"Yosemite National Park","coordinates":{"lng":-119.5375,"lat":37.7425}},{"name":"Zion National Park","coordinates":{"lng":-112.98785,"lat":37.202619444}}],"ECU":[{"name":"Antisana National Park","coordinates":{"lng":-78.03,"lat":-0.54}},{"name":"Cayambe Coca National Park","coordinates":{"lng":-77.8,"lat":0.05}},{"name":"Cotopaxi National Park","coordinates":{"lng":-78.437222222,"lat":-0.684166666}},{"name":"El Cajas National Park","coordinates":{"lng":-79.220277777,"lat":-2.846111111}},{"name":"Galápagos National Park","coordinates":{"lng":-90,"lat":-0.333333333}},{"name":"Llanganates National Park","coordinates":{"lng":-78.23333333,"lat":-1.13333333}},{"name":"Machalilla National Park","coordinates":{"lng":-80.83,"lat":-1.5625}},{"name":"Podocarpus National Park","coordinates":{"lng":-79,"lat":-4.28333333}},{"name":"Rio Negro Sopladora National Park","coordinates":{"lng":-78.54405,"lat":-2.733852777}},{"name":"Sangay National Park","coordinates":{"lng":-78.333333333,"lat":-1.833333333}},{"name":"Siete Iglesias Municipal Ecological Conservation Area","coordinates":{"lng":-78.6,"lat":-3.1}},{"name":"Sumaco Napo-Galeras National Park","coordinates":{"lng":-77.55,"lat":-0.383333}},{"name":"Yacurí National Park","coordinates":{"lng":-79.365,"lat":-4.706}},{"name":"Yasuni National Park","coordinates":{"lng":-76.1,"lat":-0.77}}],"ITA":[{"name":"Abruzzo, Lazio and Molise National Park","coordinates":{"lng":13.786472222,"lat":41.808388888}},{"name":"Alta Murgia National Park","coordinates":{"lng":16.37,"lat":40.99}},{"name":"Appennino Lucano - Val d'Agri - Lagonegrese National Park","coordinates":{"lng":15.9,"lat":40.34}},{"name":"Appennino Tosco-Emiliano National Park","coordinates":{"lng":10.24055556,"lat":44.31833333}},{"name":"Arcipelago di La Maddalena National Park","coordinates":{"lng":9.41185,"lat":41.24580483}},{"name":"Arcipelago Toscano National Park","coordinates":{"lng":10.268736111,"lat":42.824947222}},{"name":"Asinara National Park","coordinates":{"lng":8.276,"lat":41.058}},{"name":"Aspromonte National Park","coordinates":{"lng":15.99,"lat":38.17}},{"name":"Cilento, Vallo di Diano and Alburni National Park","coordinates":{"lng":15.2,"lat":40.2}},{"name":"Cinque Terre National Park","coordinates":{"lng":9.75,"lat":44.1}},{"name":"Circeo National Park","coordinates":{"lng":13.064,"lat":41.235}},{"name":"Foreste Casentinesi, Monte Falterona, Campigna National Park","coordinates":{"lng":11.791111,"lat":43.843333}},{"name":"Gargano National Park","coordinates":{"lng":15.925,"lat":41.80611111}},{"name":"Gennargentu National Park","coordinates":{"lng":9.32472222,"lat":39.98972222}},{"name":"Gran Paradiso National Park","coordinates":{"lng":7.31,"lat":45.502777777}},{"name":"Gran Sasso e Monti della Laga National Park","coordinates":{"lng":13.4952371,"lat":42.4906519}},{"name":"Lestra","coordinates":{"lng":13.049503,"lat":41.293386}},{"name":"Maiella National Park","coordinates":{"lng":14.06,"lat":42.08194444}},{"name":"Matese National Park","coordinates":{"lng":14.4069,"lat":41.3814}},{"name":"Pantelleria National Park","coordinates":{"lng":11.993888888,"lat":36.790833333}},{"name":"Pollino National Park","coordinates":{"lng":16.126111111,"lat":39.931111111}},{"name":"Sibillini Mountains National Park","coordinates":{"lng":13.195,"lat":42.906}},{"name":"Sila National Park","coordinates":{"lng":16.59194444,"lat":39.37611111}},{"name":"Stelvio National Park","coordinates":{"lng":10.506,"lat":46.466}},{"name":"Val Grande National Park","coordinates":{"lng":8.459444,"lat":46.029167}},{"name":"Vesuvius National Park","coordinates":{"lng":14.427,"lat":40.817}}],"VEN":[{"name":"Aguaro-Guariquito National Park","coordinates":{"lng":-66.75,"lat":8.3}},{"name":"Archipiélago de Los Roques National Park","coordinates":{"lng":-66.7826,"lat":11.8628}},{"name":"Canaima National Park","coordinates":{"lng":-61.7953505,"lat":5.3193393}},{"name":"Cerro El Copey National Park","coordinates":{"lng":-63.8864207,"lat":11.0088427}},{"name":"Cerro Saroche National Park","coordinates":{"lng":-70.043458055,"lat":10.871645}},{"name":"Chorro El Indio National Park","coordinates":{"lng":-72.168363741,"lat":7.758345435}},{"name":"Ciénagas de Juan Manuel National Park","coordinates":{"lng":-72.319968611,"lat":9.522487777}},{"name":"Delta del Orinoco National Park","coordinates":{"lng":-61.475206,"lat":9.8058587}},{"name":"Dinira National Park","coordinates":{"lng":-70.171587833,"lat":9.430782}},{"name":"Duida-Marahuaca National Park","coordinates":{"lng":-65.4232408,"lat":3.6530517}},{"name":"El Avila National park","coordinates":{"lng":-66.866666666,"lat":10.533333333}},{"name":"El Guacharo National Park","coordinates":{"lng":-63.553853611,"lat":10.171760388}},{"name":"El Guache National Park","coordinates":{"lng":-69.5615,"lat":9.572388888}},{"name":"El Tamá National Park","coordinates":{"lng":-72.189,"lat":7.54079}},{"name":"General Juan Pablo Peñaloza National Park","coordinates":{"lng":-71.95,"lat":7.98333333}},{"name":"Guaramacal National Park","coordinates":{"lng":-70.193611111,"lat":9.206111111}},{"name":"Guatopo National Park","coordinates":{"lng":-66.416528,"lat":10.076361}},{"name":"Henri Pittier National Park","coordinates":{"lng":-67.619,"lat":10.38}},{"name":"Jaua-Sarisariñama National Park","coordinates":{"lng":-64.2216176,"lat":4.6815912}},{"name":"Juan Crisóstomo Falcón National Park","coordinates":{"lng":-69.6899,"lat":11.1499}},{"name":"Laguna de La Restinga National Park","coordinates":{"lng":-64.14814,"lat":10.9851777}},{"name":"Laguna de Tacarigua National Park","coordinates":{"lng":-65.80851,"lat":10.07841}},{"name":"Macarao National Park","coordinates":{"lng":-67.032780555,"lat":10.425561111}},{"name":"Médanos de Coro National Park","coordinates":{"lng":-69.737630555,"lat":11.606419444}},{"name":"Mochima National Park","coordinates":{"lng":-64.3406582,"lat":10.3463835}},{"name":"Morrocoy National Park","coordinates":{"lng":-68.306,"lat":10.856}},{"name":"Parima-Tapirapecó National Park","coordinates":{"lng":-64.7046663,"lat":3.3302424}},{"name":"Peninsula de Paria National Park","coordinates":{"lng":-62.2971583,"lat":10.6657111}},{"name":"Río Viejo San Camilo National Park","coordinates":{"lng":-72.06666667,"lat":7.5}},{"name":"San Esteban National Park","coordinates":{"lng":-67.980278,"lat":10.390833}},{"name":"Santos Luzardo National Park","coordinates":{"lng":-67.5769,"lat":6.71371}},{"name":"Serranía La Neblina National Park","coordinates":{"lng":-66.0384751,"lat":0.9476993}},{"name":"Sierra Nevada National Park","coordinates":{"lng":-70.7,"lat":8.56666667}},{"name":"Tapo-Caparo National Park","coordinates":{"lng":-71.85,"lat":7.86666667}},{"name":"Terepaima National Park","coordinates":{"lng":-69.26666667,"lat":9.86666667}},{"name":"Tirgua National Park","coordinates":{"lng":-68.66805556,"lat":9.86472222}},{"name":"Turuepano National Park","coordinates":{"lng":-62.9036544,"lat":10.451939}},{"name":"Yacambú National Park","coordinates":{"lng":-69.66666667,"lat":9.63333333}},{"name":"Yapacana National Park","coordinates":{"lng":-66.7890645,"lat":3.6838873}},{"name":"Yurubí National Park","coordinates":{"lng":-68.65925,"lat":10.47875}}],"GHA":[{"name":"Bia National Park","coordinates":{"lng":-3.1,"lat":6.083333333}},{"name":"Bui National Park","coordinates":{"lng":-2.36275,"lat":8.29983}},{"name":"Kakum National Park","coordinates":{"lng":-1.383333333,"lat":5.353611111}},{"name":"Kyabobo National Park","coordinates":{"lng":0.61666667,"lat":8.41666667}},{"name":"Mole National Park","coordinates":{"lng":-2.09352,"lat":9.36844}},{"name":"Nini Suhien National Park","coordinates":{"lng":-2.56777778,"lat":5.27694444}}],"TZA":[{"name":"Arusha National Park","coordinates":{"lng":36.833333333,"lat":-3.25}},{"name":"Gombe National Park","coordinates":{"lng":29.633333333,"lat":-4.666666666}},{"name":"Jozani Chwaka Bay National Park","coordinates":{"lng":39.404,"lat":-6.233}},{"name":"Katavi National Park","coordinates":{"lng":31.33333333,"lat":-6.91666667}},{"name":"Kitulo National Park","coordinates":{"lng":33.85,"lat":-9.01666667}},{"name":"Lake Manyara National Park","coordinates":{"lng":35.833333333,"lat":-3.5}},{"name":"Mahale Mountains National Park","coordinates":{"lng":29.93333333,"lat":-6.26666667}},{"name":"Mikumi National Park","coordinates":{"lng":37.13333333,"lat":-7.2}},{"name":"Mkomazi National Park","coordinates":{"lng":38.389444444,"lat":-4.299444444}},{"name":"Nyerere National Park","coordinates":{"lng":37.4,"lat":-9}},{"name":"Ruaha National Park","coordinates":{"lng":34.63694444,"lat":-7.53111111}},{"name":"Rubondo Island National Park","coordinates":{"lng":31.833333333,"lat":-2.3}},{"name":"Saadani National Park","coordinates":{"lng":38.75,"lat":-6}},{"name":"Saanane Island National Park","coordinates":{"lng":32.88972222,"lat":-2.54436389}},{"name":"Tarangire National Park","coordinates":{"lng":35.978611111,"lat":-4}},{"name":"Udzungwa Mountains National Park","coordinates":{"lng":36.68333333,"lat":-7.8}}],"BWA":[{"name":"Chobe National Park","coordinates":{"lng":24.4,"lat":-18.65}},