{"VAT":[{"name":"Historic Centre of Rome, the Properties of the Holy See in that City Enjoying Extraterritorial Rights and San Paolo Fuori le Mura","coordinates":{"lng":12.4866,"lat":41.8928}},{"name":"Vatican City","coordinates":{"lng":12.453,"lat":41.904}}],"GBR":[{"name":"Blaenavon Industrial Landscape","coordinates":{"lng":-3.092222222,"lat":51.770277777}},{"name":"Blenheim Palace","coordinates":{"lng":-1.360948307,"lat":51.841362665}},{"name":"borders of the Roman Empire","coordinates":{"lng":-2.601,"lat":54.992611111}},{"name":"Buildings and architecture of Bath","coordinates":{"lng":-2.35,"lat":51.3667}},{"name":"Canterbury Cathedral, St Augustine's Abbey, and St Martin's Church","coordinates":{"lng":1.083333333,"lat":51.28}},{"name":"Castles and Town Walls of King Edward in Gwynedd","coordinates":{"lng":-4.276944444,"lat":53.139722222}},{"name":"Cornwall and West Devon Mining Landscape","coordinates":{"lng":-5.383611111,"lat":50.136111111}},{"name":"Derwent Valley Mills","coordinates":{"lng":-1.556,"lat":53.108}},{"name":"Durham Castle and Cathedral","coordinates":{"lng":-1.576111111,"lat":54.77472222}},{"name":"Flow Country","coordinates":{"lng":-3.65845,"lat":58.3715}},{"name":"Forth Bridge","coordinates":{"lng":-3.3876,"lat":55.9984}},{"name":"Giant's Causeway","coordinates":{"lng":-6.511666666,"lat":55.240833333}},{"name":"Gorham's Cave complex","coordinates":{"lng":-5.341944444,"lat":36.1225}},{"name":"Gough and Inaccessible Islands","coordinates":{"lng":-12.68,"lat":-37.3}},{"name":"Heart of Neolithic Orkney","coordinates":{"lng":-3.215,"lat":58.9975}},{"name":"Henderson Island","coordinates":{"lng":-128.325,"lat":-24.375}},{"name":"Ironbridge Gorge","coordinates":{"lng":-2.472777777,"lat":52.626388888}},{"name":"Jodrell Bank Observatory","coordinates":{"lng":-2.307138888,"lat":53.23625}},{"name":"Jurassic Coast","coordinates":{"lng":-2.989888889,"lat":50.70555556}},{"name":"Kew Gardens","coordinates":{"lng":-0.293611111,"lat":51.478888888}},{"name":"Lake District","coordinates":{"lng":-3.166666666,"lat":54.5}},{"name":"Maritime Greenwich","coordinates":{"lng":0,"lat":51.47777778}},{"name":"Moravian Church Settlements","coordinates":{"lng":-75.380833333,"lat":40.619166666}},{"name":"New Lanark","coordinates":{"lng":-3.781388888,"lat":55.663611111}},{"name":"Old and New Towns of Edinburgh","coordinates":{"lng":-3.216666667,"lat":55.95}},{"name":"Palace of Westminster and Westminster Abbey including Saint Margaret's Church","coordinates":{"lng":-0.12694444,"lat":51.50055556}},{"name":"Pontcysyllte Aqueduct","coordinates":{"lng":-3.08782,"lat":52.9702}},{"name":"Pontcysyllte Aqueduct and Canal","coordinates":{"lng":-3.08727,"lat":52.97212}},{"name":"Royal Botanic Gardens, Kew","coordinates":{"lng":-0.295611111,"lat":51.478694444}},{"name":"Saltaire","coordinates":{"lng":-1.79026,"lat":53.83717}},{"name":"St George and Related Fortifications","coordinates":{"lng":-64.67777778,"lat":32.37944444}},{"name":"St Kilda","coordinates":{"lng":-8.5875,"lat":57.815}},{"name":"Stonehenge","coordinates":{"lng":-1.826111111,"lat":51.178888888}},{"name":"Stonehenge, Avebury and Associated Sites","coordinates":{"lng":-1.82528,"lat":51.1789}},{"name":"Studley Royal Park including the Ruins of Fountains Abbey","coordinates":{"lng":-1.573055556,"lat":54.11611111}},{"name":"The Great Spa Towns of Europe","coordinates":{"lng":5.866944444,"lat":50.492222222}},{"name":"The Slate Landscape of Northwest Wales","coordinates":{"lng":-4.115,"lat":53.120833}},{"name":"Tower of London","coordinates":{"lng":-0.076198055,"lat":51.5082}}],"USA":[{"name":"Cahokia","coordinates":{"lng":-90.064444444,"lat":38.653888888}},{"name":"Carlsbad Caverns National Park","coordinates":{"lng":-104.443888888,"lat":32.175277777}},{"name":"Chaco Culture World Heritage Site","coordinates":{"lng":-107.970833333,"lat":36.063777777}},{"name":"El Camino Real de Tierra Adentro","coordinates":{"lng":-102.379166666,"lat":22.608055555}},{"name":"Everglades National Park","coordinates":{"lng":-80.6875,"lat":25.3125}},{"name":"Grand Canyon National Park","coordinates":{"lng":-112.122,"lat":36.0553}},{"name":"Great Smoky Mountains National Park","coordinates":{"lng":-83.425,"lat":35.611111111}},{"name":"Hawaiʻi Volcanoes National Park","coordinates":{"lng":-155.12361,"lat":19.40083}},{"name":"Hopewell Ceremonial Earthworks","coordinates":{"lng":-82.446061111,"lat":40.053658333}},{"name":"Independence Hall","coordinates":{"lng":-75.15,"lat":39.948888888}},{"name":"Kluane / Wrangell – St. Elias / Glacier Bay / Tatshenshini-Alsek","coordinates":{"lng":-140.992,"lat":61.1975}},{"name":"La Fortaleza and San Juan National Historic Site","coordinates":{"lng":-66.11916667,"lat":18.46388889}},{"name":"Liberty Island","coordinates":{"lng":-74.045,"lat":40.69}},{"name":"Mammoth Cave National Park","coordinates":{"lng":-86.101111111,"lat":37.186944444}},{"name":"Mesa Verde National Park","coordinates":{"lng":-108.494444,"lat":37.260375}},{"name":"Monticello and the University of Virginia in Charlottesville","coordinates":{"lng":-78.50388889,"lat":38.03277778}},{"name":"Moravian Church Settlements","coordinates":{"lng":-75.380833333,"lat":40.619166666}},{"name":"Olympic National Park","coordinates":{"lng":-123.75,"lat":47.7}},{"name":"Papahānaumokuākea Marine National Monument","coordinates":{"lng":-170.5,"lat":25.5}},{"name":"Poverty Point","coordinates":{"lng":-91.4114,"lat":32.6367}},{"name":"Redwood National and State Parks","coordinates":{"lng":-123.998055555,"lat":41.373888888}},{"name":"San Antonio Missions","coordinates":{"lng":-98.46,"lat":29.3281}},{"name":"Statue of Liberty","coordinates":{"lng":-74.044425277,"lat":40.689209166}},{"name":"Taos Pueblo","coordinates":{"lng":-105.54167,"lat":36.43889}},{"name":"The 20th-Century Architecture of Frank Lloyd Wright","coordinates":{"lng":-79.466476,"lat":39.905571}},{"name":"Waterton-Glacier International Peace Park","coordinates":{"lng":-113.904166666,"lat":48.996055555}},{"name":"Yellowstone National Park","coordinates":{"lng":-110.5,"lat":44.6}},{"name":"Yosemite National Park","coordinates":{"lng":-119.5375,"lat":37.7425}}],"ITA":[{"name":"18th-Century Royal Palace at Caserta with the Park, the Aqueduct of Vanvitelli, and the San Leucio Complex","coordinates":{"lng":14.32639,"lat":41.07333}},{"name":"Aeolian Islands","coordinates":{"lng":14.935833333,"lat":38.496666666}},{"name":"Amalfi Coast","coordinates":{"lng":14.6,"lat":40.633333333}},{"name":"Ancient and Primeval Beech Forests of the Carpathians and Other Regions of Europe","coordinates":{"lng":15,"lat":49}},{"name":"Arab-Norman Palermo and the Cathedral Churches of Cefalú and Monreale","coordinates":{"lng":13.353055555,"lat":38.110833333}},{"name":"Archaeological Area and the Patriarchal Basilica of Aquileia","coordinates":{"lng":13.3675,"lat":45.7683}},{"name":"Archaeological Areas of Pompei, Herculaneum and Torre Annunziata","coordinates":{"lng":14.48333333,"lat":40.75}},{"name":"Assisi, the Basilica of San Francesco and Other Franciscan Sites","coordinates":{"lng":12.62244444,"lat":43.06616667}},{"name":"Castel del Monte","coordinates":{"lng":16.2709346,"lat":41.0847535}},{"name":"Cathedral, Torre Civica and Piazza Grande, Modena","coordinates":{"lng":10.92568,"lat":44.64624}},{"name":"Cilento and Vallo di Diano National Park with the Archeological Sites of Paestum and Velia, and the Certosa di Padula","coordinates":{"lng":15.26667,"lat":40.28333}},{"name":"City of Vicenza and the Palladian Villas of the Veneto","coordinates":{"lng":11.55,"lat":45.55}},{"name":"Crespi d'Adda","coordinates":{"lng":9.536111111,"lat":45.596666666}},{"name":"domus de janas","coordinates":{"lng":8.951,"lat":40.085}},{"name":"Early Christian Monuments of Ravenna","coordinates":{"lng":12.19625,"lat":44.42041667}},{"name":"Etna Park","coordinates":{"lng":15,"lat":37.76527778}},{"name":"Etruscan Necropolises of Cerveteri and Tarquinia","coordinates":{"lng":12.10188889,"lat":42.00683333}},{"name":"Evaporitic Karst and Caves of Northern Apennines","coordinates":{"lng":10.388916666,"lat":44.379944444}},{"name":"Ferrara, City of the Renaissance, and its Po Delta","coordinates":{"lng":11.61944444,"lat":44.83777778}},{"name":"Genoa: Le Strade Nuove and the system of the Palazzi dei Rolli","coordinates":{"lng":8.931111111,"lat":44.412222222}},{"name":"Hadrian's Villa","coordinates":{"lng":12.775278,"lat":41.941944}},{"name":"Historic Centre of Florence","coordinates":{"lng":11.25611111,"lat":43.77306}},{"name":"Historic Centre of Naples","coordinates":{"lng":14.26278,"lat":40.85139}},{"name":"Historic Centre of Rome, the Properties of the Holy See in that City Enjoying Extraterritorial Rights and San Paolo Fuori le Mura","coordinates":{"lng":12.4866,"lat":41.8928}},{"name":"Historic Centre of San Gimignano","coordinates":{"lng":11.042804439,"lat":43.467057116}},{"name":"Historic Centre of Siena","coordinates":{"lng":11.33166667,"lat":43.31861111}},{"name":"Historic Centre of the City of Pienza","coordinates":{"lng":11.679,"lat":43.0766}},{"name":"Historic Centre of Urbino","coordinates":{"lng":12.63333,"lat":43.725}},{"name":"Ivrea, industrial city of the 20th century","coordinates":{"lng":7.8692,"lat":45.4575}},{"name":"Late Baroque Towns of the Val di Noto","coordinates":{"lng":14.705722222,"lat":36.792416666}},{"name":"Le Colline del Prosecco di Conegliano e Valdobbiadene","coordinates":{"lng":12.2261,"lat":45.953}},{"name":"Longobards in Italy, Places of Power","coordinates":{"lng":13.43305556,"lat":46.09416667}},{"name":"Mantua and Sabbioneta","coordinates":{"lng":10.79444444,"lat":45.15944444}},{"name":"Medici Villas and Gardens in Tuscany","coordinates":{"lng":11.304166666,"lat":43.857777777}},{"name":"Monte San Giorgio site fossils","coordinates":{"lng":8.914621,"lat":45.889252}},{"name":"National Archaeological Museum of Paestum","coordinates":{"lng":15.006858,"lat":40.42339}},{"name":"Padova botanical garden","coordinates":{"lng":11.880682,"lat":45.39953}},{"name":"Padua's fourteenth-century fresco cycles","coordinates":{"lng":11.879611111,"lat":45.411888888}},{"name":"Palazzo Bianco","coordinates":{"lng":8.931815,"lat":44.411545}},{"name":"Palazzo Rosso","coordinates":{"lng":8.93212,"lat":44.41125}},{"name":"Piazza del Duomo, Pisa","coordinates":{"lng":10.394778,"lat":43.723428}},{"name":"Ponte Vecchio","coordinates":{"lng":11.253191666,"lat":43.767988888}},{"name":"Porta Urbica","coordinates":{"lng":15.291667,"lat":37.063611}},{"name":"porticoes of Bologna","coordinates":{"lng":11.332777777,"lat":44.491388888}},{"name":"Portovenere, Cinque Terre, and the Islands (Palmaria, Tino and Tinetto)","coordinates":{"lng":9.72916667,"lat":44.10694444}},{"name":"prehistoric pile dwellings around the Alps","coordinates":{"lng":9.120991545,"lat":47.674596574}},{"name":"Residences of the Royal House of Savoy","coordinates":{"lng":7.68583,"lat":45.0725}},{"name":"Rhaetian Railway in the Albula / Bernina Landscapes","coordinates":{"lng":10.0197,"lat":46.4089}},{"name":"rock drawings in Valcamonica","coordinates":{"lng":10.35,"lat":46.023888888}},{"name":"Royal Armoury of Turin","coordinates":{"lng":7.6868411,"lat":45.0709272}},{"name":"Sacri Monti of Piedmont and Lombardy","coordinates":{"lng":9.169555555,"lat":45.974555555}},{"name":"Sanctuary of the Madonna di San Luca","coordinates":{"lng":11.297885433,"lat":44.479149726}},{"name":"Santa Maria delle Grazie","coordinates":{"lng":9.171111111,"lat":45.465833333}},{"name":"Su Nuraxi di Barumini","coordinates":{"lng":8.9998843,"lat":39.7028565}},{"name":"Syracuse and the Rocky Necropolis of Pantalica","coordinates":{"lng":15.29306,"lat":37.05944}},{"name":"The Dolomites","coordinates":{"lng":12.16306,"lat":46.61306}},{"name":"The Great Spa Towns of Europe","coordinates":{"lng":5.866944444,"lat":50.492222222}},{"name":"The Sassi and the Park of the Rupestrian Churches of Matera","coordinates":{"lng":16.610277777,"lat":40.666388888}},{"name":"The Trulli of Alberobello","coordinates":{"lng":17.23694,"lat":40.7825}},{"name":"The Venetian Works of defence between 15th and 17th centuries","coordinates":{"lng":9.663611111,"lat":45.703333333}},{"name":"The Vineyard Landscape of Piedmont: Langhe-Roero and Monferrato","coordinates":{"lng":7.994166666,"lat":44.651944444}},{"name":"Val d'Orcia","coordinates":{"lng":11.55,"lat":43.066666666}},{"name":"Valle dei Templi","coordinates":{"lng":13.59,"lat":37.28972222}},{"name":"Venice and its Lagoon","coordinates":{"lng":12.31666667,"lat":45.43333333}},{"name":"Verona","coordinates":{"lng":10.992777777,"lat":45.438611111}},{"name":"Verona historic center","coordinates":{"lng":10.993888888,"lat":45.438611111}},{"name":"Via Appia. Regina Viarum","coordinates":null},{"name":"Via Cairoli","coordinates":{"lng":8.930773888,"lat":44.411988888}},{"name":"Villa d'Este","coordinates":{"lng":12.796111111,"lat":41.9625}},{"name":"Villa Romana del Casale","coordinates":{"lng":14.334553,"lat":37.364723}},{"name":"World Heritage Dolomites","coordinates":{"lng":12.16306,"lat":46.61306}}],"BRA":[{"name":"Atlantic Forest South-East Reserves","coordinates":{"lng":-48,"lat":-24.166666666}},{"name":"Brasília","coordinates":{"lng":-47.882777777,"lat":-15.793888888}},{"name":"Brazilian Atlantic Islands: Fernando de Noronha and Atol das Rocas Reserves","coordinates":{"lng":-32.42511111,"lat":-3.857944444}},{"name":"Cavernas do Peruaçu Environmental Protection Area","coordinates":{"lng":-44.05,"lat":-14.9}},{"name":"Cavernas do Peruaçu National Park","coordinates":{"lng":-44.32434,"lat":-15.12251}},{"name":"Central Amazon Conservation Complex","coordinates":{"lng":-62.0083,"lat":-2.33333}},{"name":"Cerrado","coordinates":{"lng":-47.684611111,"lat":-14.005693888}},{"name":"Cerrado Protected Areas: Chapada dos Veadeiros and Emas National Parks","coordinates":{"lng":-52.906002777,"lat":-18.115788888}},{"name":"Church of Our Lady of the Good Death","coordinates":{"lng":-50.140393,"lat":-15.933639}},{"name":"Discovery Coast Atlantic Forest Reserves","coordinates":{"lng":-39.25,"lat":-16.5}},{"name":"Historic Centre of Salvador da Bahia","coordinates":{"lng":-38.5,"lat":-12.9667}},{"name":"Historic Centre of São Luís","coordinates":{"lng":-44.305795125,"lat":-2.52773314}},{"name":"Historic Centre of the Town of Diamantina","coordinates":{"lng":-43.6,"lat":-18.23333333}},{"name":"Historic Centre of the Town of Goiás","coordinates":{"lng":-50.13336,"lat":-15.93328}},{"name":"Historic Centre of the Town of Olinda","coordinates":{"lng":-34.845,"lat":-8.01333333}},{"name":"Historic Town of Ouro Preto","coordinates":{"lng":-43.503639899,"lat":-20.385773366}},{"name":"Iguaçu National Park","coordinates":{"lng":-54.43333333,"lat":-25.68333333}},{"name":"Jaú National Park","coordinates":{"lng":-62.617222222,"lat":-2.170277777}},{"name":"Jesuit missions among the Guaraní","coordinates":{"lng":-55.531669444,"lat":-27.255280555}},{"name":"Lençóis Maranhenses National Park","coordinates":{"lng":-43.133333333,"lat":-2.483333333}},{"name":"Museu Historico de Sergipe","coordinates":{"lng":-37.2054064,"lat":-11.0142196}},{"name":"Museum of Sacred Art","coordinates":{"lng":-50.139734745,"lat":-15.934899764}},{"name":"neighborhood unit 107/307 and 108/308 South","coordinates":{"lng":-47.904185,"lat":-15.814971}},{"name":"Pampulha Modern Ensemble","coordinates":{"lng":-43.973611111,"lat":-19.851944444}},{"name":"Pantanal","coordinates":{"lng":-57.5,"lat":-17.4}},{"name":"Pantanal Conservation Area","coordinates":null},{"name":"Paraty","coordinates":{"lng":-44.714722222,"lat":-23.219444444}},{"name":"Paraty and Ilha Grande – Culture and Biodiversity","coordinates":{"lng":-44.6854,"lat":-23.0186}},{"name":"Pilot Plan of Brasília","coordinates":{"lng":-47.882777777,"lat":-15.793888888}},{"name":"Plano Piloto","coordinates":{"lng":-47.882777777,"lat":-15.793888888}},{"name":"Rio de Janeiro: Carioca Landscapes between the Mountain and the Sea","coordinates":{"lng":-43.29138889,"lat":-22.94777778}},{"name":"Salvador","coordinates":{"lng":-38.492777777,"lat":-12.983055555}},{"name":"Sanctuary of Bom Jesus de Matosinhos","coordinates":{"lng":-43.860694444,"lat":-20.507777777}},{"name":"São Francisco Square","coordinates":{"lng":-37.20555556,"lat":-11.01361111}},{"name":"Serra da Capivara National Park","coordinates":{"lng":-42.55,"lat":-8.6667}},{"name":"Sítio Roberto Burle Marx","coordinates":{"lng":-43.54474,"lat":-23.02385}},{"name":"Tijuca Forest","coordinates":{"lng":-43.245,"lat":-22.963}},{"name":"Valongo Wharf","coordinates":{"lng":-43.187394,"lat":-22.897111}}],"ECU":[{"name":"Galapagos Islands","coordinates":{"lng":-90.55,"lat":-0.666666666}},{"name":"Galápagos Islands","coordinates":{"lng":-90.361243,"lat":-0.622977}},{"name":"Historic Center of Quito","coordinates":{"lng":-78.512083,"lat":-0.22}},{"name":"Historic Centre of Santa Ana de los Ríos de Cuenca","coordinates":{"lng":-79.0049,"lat":-2.8979}},{"name":"Inca road system","coordinates":{"lng":-69.59166667,"lat":-18.25}},{"name":"Quito","coordinates":{"lng":-78.5125,"lat":-0.22}},{"name":"Sangay National Park","coordinates":{"lng":-78.333333333,"lat":-1.833333333}}],"MAR":[{"name":"Aït Benhaddou","coordinates":{"lng":-7.133333333,"lat":31.05}},{"name":"Gate of Chellah","coordinates":{"lng":-6.823158,"lat":34.006823}},{"name":"Mazagan","coordinates":{"lng":-8.502475,"lat":33.25656111}},{"name":"Medina of Essaouira","coordinates":{"lng":-9.768904,"lat":31.51441}},{"name":"Medina of Fez","coordinates":{"lng":-4.9725,"lat":34.0625}},{"name":"Medina of Marrakesh","coordinates":{"lng":-7.98667,"lat":31.63139}},{"name":"Medina of Meknes","coordinates":{"lng":-5.564481,"lat":33.894857}},{"name":"Medina of Tétouan","coordinates":{"lng":-5.36667,"lat":35.57083}},{"name":"Rabat","coordinates":{"lng":-6.841388888,"lat":34.021111111}},{"name":"Rabat, Modern Capital and Historic City","coordinates":{"lng":-6.8228,"lat":34.0242}},{"name":"The Great Mosque of New Fez","coordinates":{"lng":-4.991627777,"lat":34.057483333}},{"name":"Volubilis","coordinates":{"lng":-5.553611111,"lat":34.071111111}}],"CHN":[{"name":"Ancient Building Complex in the Wudang Mountains","coordinates":{"lng":111.05827,"lat":32.44479}},{"name":"Ancient City of Ping Yao","coordinates":{"lng":112.1544,"lat":37.2014}},{"name":"Ancient Villages in Southern Anhui - Xidi and Hongcun","coordinates":{"lng":117.9875,"lat":29.90444444}},{"name":"Badain Jaran Desert","coordinates":{"lng":102.000277777,"lat":40.399722222}},{"name":"Capela de Nossa Senhora da Guia","coordinates":{"lng":113.54969,"lat":22.19659}},{"name":"Capital Cities and Tombs of the Ancient Koguryo Kingdom","coordinates":{"lng":126.18722222,"lat":41.15694444}},{"name":"Casa Garden","coordinates":{"lng":113.54,"lat":22.2003}},{"name":"Central Axis of Beijing","coordinates":{"lng":116.391608333,"lat":39.899638888}},{"name":"Chengde Mountain Resort and its outlying temples","coordinates":{"lng":117.9375,"lat":40.9875}},{"name":"Chengjiang Fossil Site","coordinates":{"lng":102.977222222,"lat":24.668888888}},{"name":"China Danxia","coordinates":{"lng":106.043,"lat":28.4219}},{"name":"Classical Gardens of Suzhou","coordinates":{"lng":120.62555556,"lat":31.32666667}},{"name":"Cultural Landscape of Old Tea Forests of the Jingmai Mountain in Pu’er","coordinates":{"lng":100.014545,"lat":22.201885}},{"name":"Dazu Rock Carvings","coordinates":{"lng":105.706944444,"lat":29.713333333}},{"name":"Dengfeng","coordinates":{"lng":113.04242,"lat":34.41609}},{"name":"Dom Pedro V Theatre","coordinates":{"lng":113.53816,"lat":22.19195}},{"name":"Fanjingshan","coordinates":{"lng":108.766666666,"lat":27.883333333}},{"name":"Fortaleza do Monte","coordinates":{"lng":113.542222222,"lat":22.196944444}},{"name":"Fujian Tulou sites","coordinates":{"lng":116.975,"lat":24.6587}},{"name":"Grand Canal","coordinates":{"lng":120.223888888,"lat":30.261388888}},{"name":"Guia Lighthouse","coordinates":{"lng":113.5497667,"lat":22.19651111}},{"name":"Gulangyu","coordinates":{"lng":118.061944444,"lat":24.4475}},{"name":"Historic Centre of Macau","coordinates":{"lng":113.536,"lat":22.191}},{"name":"Historic Monuments of Dengfeng in “The Centre of Heaven and Earth”","coordinates":{"lng":113.0677194,"lat":34.45874722}},{"name":"Hoh Xil","coordinates":{"lng":91,"lat":35.15}},{"name":"Honghe Hani Rice Terraces","coordinates":{"lng":102.7377,"lat":23.117187}},{"name":"Huanglong","coordinates":{"lng":103.831077,"lat":32.740756}},{"name":"Huangshan","coordinates":{"lng":118.166667,"lat":30.125}},{"name":"Hubei Shennongjia","coordinates":{"lng":110.19,"lat":31.29}},{"name":"Igreja da Sé","coordinates":{"lng":113.54166667,"lat":22.19361111}},{"name":"Imperial Palaces of the Ming and Qing Dynasties in Beijing and Shenyang","coordinates":{"lng":123.446944444,"lat":41.794166666}},{"name":"Imperial Tombs of the Ming and Qing Dynasties","coordinates":{"lng":112.65,"lat":31.01666667}},{"name":"Jiuzhaigou Valley","coordinates":{"lng":103.9,"lat":33.2}},{"name":"Kaiping Diaolou and Villages","coordinates":{"lng":112.520782,"lat":22.261814}},{"name":"Leal Senado Building","coordinates":{"lng":113.53944444,"lat":22.19333333}},{"name":"Liangzhu site","coordinates":{"lng":119.985277777,"lat":30.396666666}},{"name":"Longmen Grottoes","coordinates":{"lng":112.469722222,"lat":34.555555555}},{"name":"Lushan Quaternary Glaciation National Geopark","coordinates":{"lng":115.96666667,"lat":29.56666667}},{"name":"Macau Protestant Chapel","coordinates":{"lng":113.53991,"lat":22.19975}},{"name":"Mausoleum of the First Qin Emperor","coordinates":{"lng":109.25388889,"lat":34.38166667}},{"name":"Migratory Bird Sanctuaries along the Coast of Yellow Sea-Bohai Gulf of China (Phase I)","coordinates":{"lng":121.0168,"lat":32.9319}},{"name":"Mogao Caves","coordinates":{"lng":94.804166666,"lat":40.037222222}},{"name":"Mojiaoshan Site","coordinates":{"lng":119.985974,"lat":30.395064}},{"name":"Mount Emei Scenic Area, including Leshan Giant Buddha Scenic Area","coordinates":{"lng":103.76925,"lat":29.5449}},{"name":"Mount Sanqing","coordinates":{"lng":118.051944444,"lat":28.951944444}},{"name":"Mount Tai","coordinates":{"lng":117.1,"lat":36.266666666}},{"name":"Mount Wutai","coordinates":{"lng":113.566944444,"lat":39.081388888}},{"name":"Old Protestant Cemetery","coordinates":{"lng":113.54019722,"lat":22.19989722}},{"name":"Old Town of Lijiang","coordinates":{"lng":100.2333,"lat":26.8667}},{"name":"Qingchengshan-Dujiangyan National Park","coordinates":{"lng":103.5679,"lat":30.9068}},{"name":"Quanzhou: Emporium of the World in Song-Yuan China","coordinates":{"lng":118.444167,"lat":24.710278}},{"name":"Rock Paintings of Hua Mountain","coordinates":{"lng":107.042276,"lat":22.248327}},{"name":"Ruins of St. Paul's","coordinates":{"lng":113.54086,"lat":22.197468}},{"name":"Sam Kai Vui Kun","coordinates":{"lng":113.53941,"lat":22.194}},{"name":"Santa Casa da Misericórdia","coordinates":{"lng":113.54027778,"lat":22.19361111}},{"name":"Senado Square","coordinates":{"lng":113.53966667,"lat":22.19358333}},{"name":"Sichuan Giant Panda Sanctuaries","coordinates":{"lng":103,"lat":30.833333333}},{"name":"Silk Roads: the Routes Network of Chang'an-Tianshan Corridor","coordinates":{"lng":108.8572,"lat":34.3044}},{"name":"Sir Robert Ho Tung Library","coordinates":{"lng":113.53777778,"lat":22.1925}},{"name":"South China Karst","coordinates":{"lng":110.3544,"lat":24.9233}},{"name":"St Lawrence's Church","coordinates":{"lng":113.5368056,"lat":22.19069444}},{"name":"St. Anthony's Church","coordinates":{"lng":113.539452777,"lat":22.198961111}},{"name":"St. Augustine's Church","coordinates":{"lng":113.538274,"lat":22.192204}},{"name":"St. Dominic's Church","coordinates":{"lng":113.540412,"lat":22.194681}},{"name":"St. Joseph's Seminary and Church","coordinates":{"lng":113.537,"lat":22.1919}},{"name":"Summer Palace","coordinates":{"lng":116.2689,"lat":39.9975}},{"name":"Temple and Cemetery of Confucius and the Kong Family Mansion in Qufu","coordinates":{"lng":116.984449,"lat":35.596512}},{"name":"Temple of Heaven","coordinates":{"lng":116.4066,"lat":39.8822}},{"name":"The Great Wall","coordinates":{"lng":116.0833,"lat":40.4167}},{"name":"Three Parallel Rivers National Park","coordinates":{"lng":98.406388888,"lat":27.895}},{"name":"Tusi Sites","coordinates":{"lng":109.966944444,"lat":28.998611111}},{"name":"West Lake Cultural Landscape of Hangzhou","coordinates":{"lng":120.1408333,"lat":30.2375}},{"name":"Western Xia Mausoleums","coordinates":{"lng":105.987167,"lat":38.435035}},{"name":"World Heritage Sites in Tibet","coordinates":{"lng":91.11717,"lat":29.65792}},{"name":"Wulingyuan","coordinates":{"lng":110.466666666,"lat":29.345555555}},{"name":"Wuyi Mountains","coordinates":{"lng":117.683333,"lat":27.716667}},{"name":"Xanadu","coordinates":{"lng":116.185158888,"lat":42.358021111}},{"name":"Xinjiang Tianshan","coordinates":{"lng":80.3542,"lat":41.9683}},{"name":"Yinxu","coordinates":{"lng":114.318611111,"lat":36.1225}},{"name":"Yungang Grottoes","coordinates":{"lng":113.122222222,"lat":40.109722222}},{"name":"Zhengzhou Section of Tongji Canal","coordinates":null},{"name":"Zhoukoudian site","coordinates":{"lng":115.92483,"lat":39.68896}}],"DEU":[{"name":"Aachen Cathedral","coordinates":{"lng":6.083922222,"lat":50.77475}},{"name":"Aachen Cathedral Treasury","coordinates":{"lng":6.082816666,"lat":50.775036111}},{"name":"Aachen Chapel of Hungary","coordinates":{"lng":6.083922222,"lat":50.77475}},{"name":"Abbey and Altenmünster of Lorsch","coordinates":{"lng":8.56858,"lat":49.65369}},{"name":"Altes Museum","coordinates":{"lng":13.398888888,"lat":52.519444444}},{"name":"Ancient and Primeval Beech Forests of the Carpathians and Other Regions of Europe","coordinates":{"lng":15,"lat":49}},{"name":"Archaeological Border complex of Hedeby and the Danevirke","coordinates":{"lng":9.454111,"lat":54.461944}},{"name":"Artists' Colony in Darmstadt","coordinates":{"lng":8.66650397,"lat":49.875433345}},{"name":"Augustusburg and Falkenlust Palaces","coordinates":{"lng":6.908055555,"lat":50.8275}},{"name":"Bauhaus and its Sites in Weimar, Dessau and Bernau","coordinates":{"lng":11.32949,"lat":50.97477}},{"name":"Bergpark Wilhelmshöhe","coordinates":{"lng":9.4,"lat":51.3167}},{"name":"Berlin Modernism Housing Estates","coordinates":{"lng":13.45,"lat":52.448333}},{"name":"borders of the Roman Empire","coordinates":{"lng":-2.601,"lat":54.992611111}},{"name":"Caves and Ice Age Art in the Swabian Jura","coordinates":{"lng":9.765555555,"lat":48.387777777}},{"name":"Church of St. George","coordinates":{"lng":9.08222222,"lat":47.68916667}},{"name":"Classical Weimar","coordinates":{"lng":11.31666667,"lat":50.98333333}},{"name":"Collegiate Church, Castle, and Old Town of Quedlinburg","coordinates":{"lng":11.15,"lat":51.78333}},{"name":"Cologne Cathedral","coordinates":{"lng":6.958333333,"lat":50.941388888}},{"name":"Dancer of Pergamon","coordinates":null},{"name":"Danevirke","coordinates":{"lng":9.486666666,"lat":54.4775}},{"name":"Dessau","coordinates":{"lng":12.246111111,"lat":51.834166666}},{"name":"Dessau-Wörlitz Garden Realm","coordinates":{"lng":12.2814,"lat":51.8636}},{"name":"Ernst Ludwig House","coordinates":{"lng":8.668261498,"lat":49.876400474}},{"name":"Ernst-August-Stollen","coordinates":{"lng":10.1911,"lat":51.7958}},{"name":"Fagus Factory","coordinates":{"lng":9.81256,"lat":51.9837}},{"name":"Frontiers of the Roman Empire – The Danube Limes (Western Segment)","coordinates":{"lng":16.861,"lat":48.115}},{"name":"Grünhirscher Stollen","coordinates":{"lng":10.5033417,"lat":51.7053739}},{"name":"Hanseatic City of Lübeck","coordinates":{"lng":10.69167,"lat":53.86667}},{"name":"Historic Centres of Stralsund and Wismar","coordinates":{"lng":13.08527778,"lat":54.3025}},{"name":"Jewish-Medieval Heritage of Erfurt","coordinates":{"lng":11.029246,"lat":50.978644}},{"name":"Lower German Limes","coordinates":{"lng":6.453888888,"lat":51.662222222}},{"name":"Luther Memorials in Eisleben and Wittenberg","coordinates":{"lng":12.652777777,"lat":51.864722222}},{"name":"Marceau-Denkmal","coordinates":{"lng":7.592,"lat":50.3737}},{"name":"Margravial Opera House","coordinates":{"lng":11.57866362,"lat":49.944344697}},{"name":"Maulbronn Monastery","coordinates":{"lng":8.8129,"lat":49.0011}},{"name":"Messel pit","coordinates":{"lng":8.756667,"lat":49.9175}},{"name":"Mines of Rammelsberg, Historic Town of Goslar and Upper Harz Water Management System","coordinates":{"lng":10.34,"lat":51.82}},{"name":"Moravian Church Settlements","coordinates":{"lng":-75.380833333,"lat":40.619166666}},{"name":"Museum Island","coordinates":{"lng":13.395555555,"lat":52.521388888}},{"name":"Muskau Park","coordinates":{"lng":14.723229,"lat":51.547559}},{"name":"Napoleonsturm","coordinates":{"lng":12.2908,"lat":51.8251}},{"name":"Naumburg Cathedral and the High Medieval Cultural Landscape of the Rivers Saale and Unstrut","coordinates":{"lng":11.80388889,"lat":51.15472222}},{"name":"Old town of Regensburg with Stadtamhof","coordinates":{"lng":12.096944444,"lat":49.017222222}},{"name":"Ore Mountain Mining Region","coordinates":{"lng":12.8373,"lat":50.4065}},{"name":"Palaces and Parks of Potsdam and Berlin","coordinates":{"lng":13.033333333,"lat":52.4}},{"name":"prehistoric pile dwellings around the Alps","coordinates":{"lng":9.120991545,"lat":47.674596574}},{"name":"Princely Abbey of Corvey","coordinates":{"lng":9.41,"lat":51.777778}},{"name":"Reichenau Island","coordinates":{"lng":9.063055555,"lat":47.693055555}},{"name":"Residence Ensemble Schwerin","coordinates":{"lng":11.41889,"lat":53.62417}},{"name":"Rhine Gorge","coordinates":{"lng":7.694169444,"lat":50.1736}},{"name":"Roman Monuments, Cathedral of St. Peter and Church of Our Lady in Trier UNESCO World Heritage Site","coordinates":{"lng":6.63306,"lat":49.75}},{"name":"ShUM Sites of Speyer, Worms and Mainz","coordinates":{"lng":8.439539,"lat":49.316211}},{"name":"Speicherstadt and Kontorhaus District with Chilehaus","coordinates":{"lng":9.991944444,"lat":53.543333333}},{"name":"Speyer Cathedral","coordinates":{"lng":8.4425,"lat":49.317222}},{"name":"St Mary's Cathedral and St Michael's Church at Hildesheim","coordinates":{"lng":9.94389,"lat":52.15278}},{"name":"The Architectural Work of Le Corbusier","coordinates":{"lng":6.829336,"lat":46.468414}},{"name":"The Great Spa Towns of Europe","coordinates":{"lng":5.866944444,"lat":50.492222222}},{"name":"The Palaces of King Ludwig II of Bavaria: Neuschwanstein, Linderhof, Schachen and Herrenchiemsee","coordinates":{"lng":11.1125,"lat":47.419722222}},{"name":"Tiefer Georg-Stollen","coordinates":{"lng":10.235278,"lat":51.804722}},{"name":"Town Hall and Roland on the Marketplace of Bremen","coordinates":{"lng":8.807472222,"lat":53.07597222}},{"name":"Town of Bamberg","coordinates":null},{"name":"Upper German-Raetian Limes","coordinates":{"lng":9.1575,"lat":49.796388888}},{"name":"Völklingen Ironworks","coordinates":{"lng":6.84528,"lat":49.25056}},{"name":"Wadden Sea","coordinates":{"lng":8.556111111,"lat":53.528611111}},{"name":"Wartburg","coordinates":{"lng":10.306388888,"lat":50.966111111}},{"name":"Water Management System of Augsburg","coordinates":{"lng":10.902,"lat":48.3655}},{"name":"Wieskirche","coordinates":{"lng":10.900445,"lat":47.6806}},{"name":"Würzburg Residence with the Court Gardens and Residence Square","coordinates":{"lng":9.93889,"lat":49.79278}},{"name":"Zollverein Coal Mine Industrial Complex","coordinates":{"lng":7.04408,"lat":51.4865}}],"IRN":[{"name":"Armenian Monastic Ensembles of Iran","coordinates":{"lng":45.473333333,"lat":38.978888888}},{"name":"Bam","coordinates":{"lng":58.356944444,"lat":29.106111111}},{"name":"Bam Citadel","coordinates":{"lng":58.368475,"lat":29.116855555}},{"name":"Behistun","coordinates":{"lng":47.434361111,"lat":34.388222222}},{"name":"Chogha Zanbil","coordinates":{"lng":48.520833333,"lat":32.008333333}},{"name":"Cultural Landscape of Hawraman/Uramanat","coordinates":{"lng":46.47785,"lat":35.107358333}},{"name":"Dasht-e Lut","coordinates":{"lng":59.241111111,"lat":30.263888888}},{"name":"Ecbatana","coordinates":{"lng":48.516247,"lat":34.8065}},{"name":"Golestan Palace","coordinates":{"lng":51.420277777,"lat":35.679722222}},{"name":"Gonbad-e Qabus","coordinates":{"lng":55.168991133,"lat":37.258121354}},{"name":"Heritage district of Yazd","coordinates":{"lng":54.369583333,"lat":31.900555555}},{"name":"Hyrcanian Forests","coordinates":{"lng":55.7243,"lat":37.4215}},{"name":"Iwan-e Mosaic","coordinates":{"lng":51.5764556,"lat":29.7800445}},{"name":"Jameh Mosque of Isfahan","coordinates":{"lng":51.685277777,"lat":32.669722222}},{"name":"Maymand","coordinates":{"lng":55.375555555,"lat":30.168055555}},{"name":"Naqsh-e Jahan Square","coordinates":{"lng":51.677333333,"lat":32.658222222}},{"name":"Pasargadae","coordinates":{"lng":53.179444444,"lat":30.2}},{"name":"Persepolis","coordinates":{"lng":52.89,"lat":29.935}},{"name":"Persian Caravanserai","coordinates":{"lng":51.420136111,"lat":35.058352777}},{"name":"Persian Qanat","coordinates":{"lng":58.654444444,"lat":34.29}},{"name":"Prehistoric Sites of the Khorramabad Valley","coordinates":{"lng":48.316666666,"lat":33.466666666}},{"name":"Sassanid Archaeological Landscape of Fars Region","coordinates":{"lng":51.57045,"lat":29.777481}},{"name":"Shahr-e Sukhteh","coordinates":{"lng":61.331944444,"lat":30.595277777}},{"name":"Sheikh Safi al-Din Khānegāh and Shrine Ensemble","coordinates":{"lng":48.291388888,"lat":38.248611111}},{"name":"Shushtar Historical Hydraulic System","coordinates":{"lng":48.848687,"lat":32.053723}},{"name":"Soltaniyeh","coordinates":{"lng":48.7975,"lat":36.434722}},{"name":"Susa","coordinates":{"lng":48.256111111,"lat":32.189444444}},{"name":"Susa I","coordinates":{"lng":48.257778055,"lat":32.190556111}},{"name":"Susa II","coordinates":{"lng":48.257778055,"lat":32.190556111}},{"name":"Susa III","coordinates":{"lng":48.257778055,"lat":32.190556111}},{"name":"Tabriz Bazaar","coordinates":{"lng":46.292286111,"lat":38.080772222}},{"name":"Takht-e Soleyman","coordinates":{"lng":47.234166666,"lat":36.604722222}},{"name":"Temple of Anahita at Bishapur","coordinates":{"lng":51.5756862,"lat":29.7800335}},{"name":"The Persian Garden","coordinates":null},{"name":"Trans-Iranian Railway","coordinates":{"lng":51.398333333,"lat":35.658305555}},{"name":"Valerian Palace","coordinates":{"lng":51.5772211,"lat":29.7800119}},{"name":"Zendan-e Soleyman","coordinates":{"lng":47.201666666,"lat":36.614444444}},{"name":"Zendan-e Soleyman Lake","coordinates":{"lng":47.201388888,"lat":36.614444444}}],"IND":[{"name":"Agra Fort","coordinates":{"lng":78.021297222,"lat":27.179583333}},{"name":"Ajanta Caves","coordinates":{"lng":75.70047222,"lat":20.55341667}},{"name":"Bhimbetka rock shelters","coordinates":{"lng":77.61438056,"lat":22.93863333}},{"name":"Champaner-Pavagadh Archaeological Park","coordinates":{"lng":73.533333333,"lat":22.483333333}},{"name":"Charaideo deoshal","coordinates":null},{"name":"Chhatrapati Shivaji Maharaj Terminus","coordinates":{"lng":72.8355,"lat":18.9398}},{"name":"Churches and Convents of Goa","coordinates":{"lng":73.9117,"lat":15.5024}},{"name":"Dhal ni Pol","coordinates":{"lng":72.590006,"lat":23.018162}},{"name":"Dholavira","coordinates":{"lng":70.21666667,"lat":23.88611111}},{"name":"Elephanta Caves","coordinates":{"lng":72.931388888,"lat":18.963333333}},{"name":"Ellora Caves","coordinates":{"lng":75.179166666,"lat":20.026388888}},{"name":"Fatehpur Sikri","coordinates":{"lng":77.661111111,"lat":27.091111111}},{"name":"Great Himalayan National Park","coordinates":{"lng":77.951021,"lat":31.804288}},{"name":"Great Living Chola Temples","coordinates":{"lng":79.1325,"lat":10.783055555}},{"name":"Group of monuments at Mahabalipuram","coordinates":{"lng":80.191666666,"lat":12.616666666}},{"name":"Hampi","coordinates":{"lng":76.462162,"lat":15.334547}},{"name":"Hill Forts of Rajasthan","coordinates":{"lng":74.646111,"lat":24.883306}},{"name":"Historic City of Ahmadabad","coordinates":{"lng":72.5875,"lat":23.0256}},{"name":"Humayun's Tomb","coordinates":{"lng":77.250602,"lat":28.593264}},{"name":"Jaipur","coordinates":{"lng":75.82,"lat":26.915}},{"name":"Jantar Mantar","coordinates":{"lng":75.825,"lat":26.924722222}},{"name":"Jantar Mantar","coordinates":{"lng":77.21647778,"lat":28.62710833}},{"name":"Kaas Plateau","coordinates":{"lng":73.8227916,"lat":17.7201607}},{"name":"Kaziranga National Park","coordinates":{"lng":93.35,"lat":26.666666666}},{"name":"Kevladev National Park","coordinates":{"lng":77.516667,"lat":27.166667}},{"name":"Khajuraho Group of Monuments","coordinates":{"lng":79.92222,"lat":24.85222}},{"name":"Khangchendzonga National Park","coordinates":{"lng":88.3123,"lat":27.6563}},{"name":"Konark Sun Temple","coordinates":{"lng":86.094596,"lat":19.887444}},{"name":"Mahabodhi Temple","coordinates":{"lng":84.991358,"lat":24.696004}},{"name":"Maidam","coordinates":{"lng":94.875,"lat":26.943611111}},{"name":"Manas National Park","coordinates":{"lng":90.933333333,"lat":26.716666666}},{"name":"Maratha Military Landscapes of India","coordinates":{"lng":73.9425,"lat":20.7225}},{"name":"Mountain Railways of India","coordinates":null},{"name":"Nalanda Mahavihara","coordinates":{"lng":85.443827777,"lat":25.136797222}},{"name":"Nanda Devi and Valley of Flowers National Parks","coordinates":{"lng":79.66667,"lat":30.71667}},{"name":"Pattadakal Group of Monuments","coordinates":{"lng":75.814638888,"lat":15.951333333}},{"name":"Qutb complex","coordinates":{"lng":77.18543,"lat":28.524382}},{"name":"Ramappa Temple","coordinates":{"lng":79.9425,"lat":18.259444444}},{"name":"Rani ki vav","coordinates":{"lng":72.10162,"lat":23.85892}},{"name":"Red Fort","coordinates":{"lng":77.240277777,"lat":28.655833333}},{"name":"Sacred Ensembles of the Hoysalas","coordinates":{"lng":75.994072,"lat":13.212453}},{"name":"Sanchi","coordinates":{"lng":77.73972222,"lat":23.47944444}},{"name":"Santiniketan","coordinates":{"lng":87.6852,"lat":23.6776}},{"name":"Secretariat Building","coordinates":{"lng":76.800555555,"lat":30.761111111}},{"name":"Sundarbans National Park","coordinates":{"lng":88.75,"lat":21.75}},{"name":"Taj Mahal","coordinates":{"lng":78.041944444,"lat":27.175}},{"name":"The Architectural Work of Le Corbusier","coordinates":{"lng":6.829336,"lat":46.468414}},{"name":"Tower of Shadows","coordinates":{"lng":76.8041,"lat":30.75961}},{"name":"Victorian Gothic and Art Deco Ensembles of Mumbai","coordinates":{"lng":72.830083,"lat":18.929806}},{"name":"Western Ghats","coordinates":{"lng":77.061111111,"lat":10.169722222}}],"IDN":[{"name":"Borobudur Temple Compounds","coordinates":{"lng":110.20361,"lat":-7.60778}},{"name":"Cultural Landscape of Bali Province: the Subak System as a Manifestation of the Tri Hita Karana Philosophy","coordinates":{"lng":115.4027778,"lat":-8.259166667}},{"name":"Komodo National Park","coordinates":{"lng":119.576569,"lat":-8.651625}},{"name":"Lorentz National Park","coordinates":{"lng":137.833333,"lat":-4.75}},{"name":"Ombilin coal mine","coordinates":{"lng":100.767,"lat":-0.683333}},{"name":"Pegulingan Temple","coordinates":{"lng":115.31777,"lat":-8.41498}},{"name":"Prambanan Temple","coordinates":{"lng":110.49122,"lat":-7.752}},{"name":"Sangiran","coordinates":{"lng":110.85,"lat":-7.45}},{"name":"Sawahlunto","coordinates":{"lng":100.778333333,"lat":-0.682777777}},{"name":"The Cosmological Axis of Yogyakarta and its Historic Landmarks","coordinates":{"lng":110.3647778,"lat":-7.8013889}},{"name":"Tropical Rainforest Heritage of Sumatra","coordinates":{"lng":101.5,"lat":-2.5}},{"name":"Ujung Kulon National Park","coordinates":{"lng":105.333333333,"lat":-6.75}}],"CHE":[{"name":"Abbey of Saint Gall","coordinates":{"lng":9.377222222,"lat":47.423055555}},{"name":"Ancient and Primeval Beech Forests of the Carpathians and Other Regions of Europe","coordinates":{"lng":15,"lat":49}},{"name":"Glarus thrust","coordinates":{"lng":9.25,"lat":46.91667}},{"name":"Jungfrau-Aletsch protected area","coordinates":{"lng":8.033333,"lat":46.5}},{"name":"La Chaux-de-Fonds / Le Locle, Watchmaking Town Planning","coordinates":{"lng":6.78,"lat":47.08}},{"name":"Lavaux","coordinates":{"lng":6.746111111,"lat":46.491944444}},{"name":"Monte San Giorgio","coordinates":{"lng":8.95,"lat":45.916666666}},{"name":"Monte San Giorgio site fossils","coordinates":{"lng":8.914621,"lat":45.889252}},{"name":"Old City of Bern","coordinates":{"lng":7.450277777,"lat":46.948055555}},{"name":"prehistoric pile dwellings around the Alps","coordinates":{"lng":9.120991545,"lat":47.674596574}},{"name":"Rhaetian Railway in the Albula / Bernina Landscapes","coordinates":{"lng":10.0197,"lat":46.4089}},{"name":"Saint John Abbey","coordinates":{"lng":10.447777777,"lat":46.629166666}},{"name":"The Architectural Work of Le Corbusier","coordinates":{"lng":6.829336,"lat":46.468414}},{"name":"Three Castles of Bellinzona","coordinates":{"lng":9.022222222,"lat":46.192777777}}],"AUT":[{"name":"Altaussee salt mine","coordinates":{"lng":13.7392,"lat":47.6514}},{"name":"Ancient and Primeval Beech Forests of the Carpathians and Other Regions of Europe","coordinates":{"lng":15,"lat":49}},{"name":"City of Graz – Historic Centre and Schloss Eggenberg","coordinates":{"lng":15.391666666,"lat":47.074166666}},{"name":"Fertö / Neusiedlersee Cultural Landscape","coordinates":{"lng":16.73472222,"lat":47.80055556}},{"name":"Frontiers of the Roman Empire – The Danube Limes (Western Segment)","coordinates":{"lng":16.861,"lat":48.115}},{"name":"Hallstatt-Dachstein Salzkammergut cultural landscape","coordinates":{"lng":13.6464,"lat":47.5594}},{"name":"Historic Centre of the City of Salzburg","coordinates":{"lng":13.0486,"lat":47.7997}},{"name":"Historic Centre of Vienna","coordinates":{"lng":16.3722,"lat":48.2084}},{"name":"Neusiedl Lake","coordinates":{"lng":16.75,"lat":47.833333333}},{"name":"Palace and gardens of Schönbrunn","coordinates":{"lng":16.31333,"lat":48.18667}},{"name":"prehistoric pile dwellings around the Alps","coordinates":{"lng":9.120991545,"lat":47.674596574}},{"name":"Semmering railway","coordinates":{"lng":15.831,"lat":47.643}},{"name":"The Great Spa Towns of Europe","coordinates":{"lng":5.866944444,"lat":50.492222222}},{"name":"Wachau","coordinates":{"lng":15.43417,"lat":48.36444}}],"FRA":[{"name":"Abbey Church of Saint-Savin-sur-Gartempe","coordinates":{"lng":0.86597,"lat":46.56477}},{"name":"Abbey of Fontenay","coordinates":{"lng":4.389327,"lat":47.639661}},{"name":"Ancient and Primeval Beech Forests of the Carpathians and Other Regions of Europe","coordinates":{"lng":15,"lat":49}},{"name":"Arles, Roman and Romanesque Monuments","coordinates":{"lng":4.630694444,"lat":43.677638888}},{"name":"banks of the Seine","coordinates":{"lng":2.35889,"lat":48.85}},{"name":"Belfries of Belgium and France","coordinates":{"lng":3.514842,"lat":50.635266}},{"name":"Bertrimoutier Franco-German war cemetery","coordinates":{"lng":7.055777777,"lat":48.267}},{"name":"Canal du Midi","coordinates":{"lng":1.41833333,"lat":43.61111111}},{"name":"Cathedral of Notre-Dame, Former Abbey of Saint-Rémi and Palace of Tau, Reims","coordinates":{"lng":4.032777778,"lat":49.25333333}},{"name":"Chaîne des Puys - Limagne fault tectonic arena","coordinates":{"lng":2.96511,"lat":45.77939}},{"name":"Champagne hillsides, houses and cellars","coordinates":{"lng":3.94611,"lat":49.0775}},{"name":"Château de Chambord","coordinates":{"lng":1.517222222,"lat":47.616111111}},{"name":"Chauvet Cave","coordinates":{"lng":4.4161408,"lat":44.3881219}},{"name":"Cité de Carcassonne","coordinates":{"lng":2.363788,"lat":43.206439}},{"name":"Cité des Électriciens","coordinates":{"lng":2.55356,"lat":50.482183}},{"name":"Climats, terroirs of Burgundy","coordinates":{"lng":4.864444444,"lat":47.058055555}},{"name":"Confluence Beach","coordinates":{"lng":0.07497,"lat":47.21375}},{"name":"Cordouan Lighthouse","coordinates":{"lng":-1.1733254,"lat":45.5863198}},{"name":"Écoles des cités de la fosse n° 12 des mines de Lens","coordinates":{"lng":2.80957,"lat":50.4421}},{"name":"Episcopal City of Albi","coordinates":{"lng":2.1425,"lat":43.9283}},{"name":"Fortifications of Vauban","coordinates":{"lng":2.75888889,"lat":50.2825}},{"name":"Fosse n° 5 des mines de Meurchin","coordinates":{"lng":2.85055,"lat":50.5095}},{"name":"French Southern and Antarctic Lands nature reserve","coordinates":{"lng":69.5811,"lat":-49.1397}},{"name":"From the Great Saltworks of Salins-les-Bains to the Royal Saltworks of Arc-et-Senans, the Production of Open-pan Salt","coordinates":{"lng":5.876388889,"lat":46.9375}},{"name":"Funerary and memory sites of the First World War (Western Front)","coordinates":null},{"name":"Gulf of Porto: Calanche of Piana, Gulf of Girolata, Scandola Reserve","coordinates":{"lng":8.628833333,"lat":42.32519444}},{"name":"Historic Centre of Avignon","coordinates":{"lng":4.806111111,"lat":43.95277778}},{"name":"Jurisdiction of Saint-Emilion","coordinates":{"lng":0.155277777,"lat":44.894722222}},{"name":"La Cordelle chapel","coordinates":{"lng":3.75028,"lat":47.4697}},{"name":"La Nouvelle branch","coordinates":null},{"name":"Maison Carrée","coordinates":{"lng":4.356111,"lat":43.838194}},{"name":"Marquesas Islands","coordinates":{"lng":-139.6,"lat":-8.9}},{"name":"Megaliths of Carnac and of the shores of Morbihan","coordinates":{"lng":-3.087222222,"lat":47.616111111}},{"name":"Mont-Saint-Michel and its Bay","coordinates":{"lng":-1.51056,"lat":48.63556}},{"name":"Monte Perdido Massif","coordinates":{"lng":0.030877,"lat":42.671002}},{"name":"New Caledonia Barrier Reef","coordinates":{"lng":164.566388888,"lat":-20.411944444}},{"name":"Nice, Winter Resort Town of the Riviera","coordinates":{"lng":7.272305555,"lat":43.701694444}},{"name":"northern French coal mining region","coordinates":{"lng":3.54611,"lat":50.4625}},{"name":"Notre-Dame de Chartres","coordinates":{"lng":1.487777777,"lat":48.447777777}},{"name":"Palace and Park of Versailles","coordinates":{"lng":2.119444444,"lat":48.805}},{"name":"Palace of Fontainebleau","coordinates":{"lng":2.700555555,"lat":48.402222222}},{"name":"Pierrepont German military cemetery","coordinates":{"lng":5.70492,"lat":49.42315}},{"name":"Pitons, cirques and remparts of Reunion Island","coordinates":{"lng":55.48,"lat":-21.0994}},{"name":"Place Stanislas, Place de la Carrière and Place d'Alliance in Nancy","coordinates":{"lng":6.183333333,"lat":48.69361111}},{"name":"Pont du Gard","coordinates":{"lng":4.5355,"lat":43.9473}},{"name":"pont Saint-Bénézet","coordinates":{"lng":4.805419,"lat":43.953266}},{"name":"port of the Moon","coordinates":{"lng":-0.572222222,"lat":44.838888888}},{"name":"prehistoric pile dwellings around the Alps","coordinates":{"lng":9.120991545,"lat":47.674596574}},{"name":"Prehistoric Sites and Decorated Caves of the Vézère Valley","coordinates":{"lng":1.17,"lat":45.0575}},{"name":"Provins","coordinates":{"lng":3.298888888,"lat":48.559722222}},{"name":"Pyrénées – Mont Perdu World Heritage Site","coordinates":{"lng":0.05,"lat":42.65}},{"name":"reconstructed center of Le Havre","coordinates":{"lng":0.115222,"lat":49.4891}},{"name":"Roman Theatre and its Surroundings and the \"Triumphal Arch\" of Orange","coordinates":{"lng":4.808416667,"lat":44.13572222}},{"name":"Royal Abbey of Hautecombe","coordinates":{"lng":5.839722222,"lat":45.752777777}},{"name":"Royal abbey of Saint-Remi","coordinates":{"lng":4.0413,"lat":49.2434}},{"name":"Saint-Savin","coordinates":{"lng":0.863611111,"lat":46.566111111}},{"name":"Strasbourg: from Grande-île to Neustadt, a European urban scene","coordinates":{"lng":7.74889,"lat":48.58444}},{"name":"Taputapuatea marae","coordinates":{"lng":-151.359166666,"lat":-16.836111111}},{"name":"The Architectural Work of Le Corbusier","coordinates":{"lng":6.829336,"lat":46.468414}},{"name":"The Causses and the Cévennes, Mediterranean agro-pastoral Cultural Landscape","coordinates":{"lng":3.4731,"lat":44.2203}},{"name":"The Great Spa Towns of Europe","coordinates":{"lng":5.866944444,"lat":50.492222222}},{"name":"The Loire Valley between Sully-sur-Loire and Chalonnes","coordinates":{"lng":0.06218,"lat":47.21629}},{"name":"Tour Pey-Berland","coordinates":{"lng":-0.576555555,"lat":44.837619444}},{"name":"Vézelay, Church and Hill","coordinates":{"lng":3.748333333,"lat":47.466388888}},{"name":"Vieux Lyon","coordinates":{"lng":4.828056,"lat":45.763056}},{"name":"Volcanoes and Forests of Mount Pelée and the Pitons of Northern Martinique","coordinates":{"lng":-61.0731,"lat":14.7582}},{"name":"Way of Saint James UNESCO World Heritage Sites in France","coordinates":{"lng":-0.722944444,"lat":45.184055555}}],"SVN":[{"name":"Ancient and Primeval Beech Forests of the Carpathians and Other Regions of Europe","coordinates":{"lng":15,"lat":49}},{"name":"Heritage of Mercury. Almadén and Idrija","coordinates":{"lng":14.026666666,"lat":46.003888888}},{"name":"prehistoric pile dwellings around the Alps","coordinates":{"lng":9.120991545,"lat":47.674596574}},{"name":"Škocjan Caves","coordinates":{"lng":13.99472,"lat":45.665}},{"name":"The works of Jože Plečnik in Ljubljana – Human Centred Urban Design","coordinates":{"lng":14.502222,"lat":46.043333}}],"RUS":[{"name":"Ancient City of Tauric Chersonese and its Chora","coordinates":{"lng":33.49139,"lat":44.61083}},{"name":"Astronomical Observatories of Kazan Federal University","coordinates":{"lng":49.119097222,"lat":55.790908333}},{"name":"Bolgar Historical and Archaeological Complex","coordinates":{"lng":49.05639,"lat":54.97889}},{"name":"Central Sikhote-Alin","coordinates":{"lng":136.66111,"lat":46.68333}},{"name":"Church of the Ascension, Kolomenskoye","coordinates":{"lng":37.670833333,"lat":55.667222222}},{"name":"Church of the Holy All-Savior of Derbent","coordinates":{"lng":48.287047,"lat":42.057012}},{"name":"Churches of the Pskov School of Architecture","coordinates":{"lng":28.3286,"lat":57.8072}},{"name":"Citadel, Ancient City and Fortress Buildings of Derbent","coordinates":{"lng":48.29719,"lat":42.05297}},{"name":"Citadel, old town and fortifications of Derbent","coordinates":{"lng":48.295833333,"lat":42.069166666}},{"name":"Cultural and Historic Ensemble of the Solovetsky Islands","coordinates":{"lng":35.66666667,"lat":65.08333333}},{"name":"Cultural Landscape of Kenozero Lake","coordinates":{"lng":38.172611,"lat":61.928}},{"name":"Curonian Spit","coordinates":{"lng":20.970833333,"lat":55.274444444}},{"name":"Derbent","coordinates":{"lng":48.288888888,"lat":42.057777777}},{"name":"Derbent Lighthouse","coordinates":{"lng":48.29601,"lat":42.06134}},{"name":"Derbent Mosque","coordinates":{"lng":48.279722222,"lat":42.055277777}},{"name":"Ferapontov Monastery","coordinates":{"lng":38.5675,"lat":59.956388888}},{"name":"Golden Mountains of Altai","coordinates":{"lng":86,"lat":50.466666666}},{"name":"Historic Centre of Saint Petersburg and Related Groups of Monuments","coordinates":{"lng":30.315555555,"lat":59.938888888}},{"name":"Historic Monuments of Novgorod and Surroundings","coordinates":{"lng":31.28555556,"lat":58.51833333}},{"name":"historical centre of Yaroslavl","coordinates":{"lng":39.8875,"lat":57.623611}},{"name":"Kapova Cave","coordinates":{"lng":57.063888888,"lat":53.044444444}},{"name":"Kizhi Pogost","coordinates":{"lng":35.22345,"lat":62.06767}},{"name":"Kremlin and Red Square","coordinates":{"lng":37.62,"lat":55.75361111}},{"name":"Lake Baikal","coordinates":{"lng":108.00472222,"lat":53.30277778}},{"name":"Landscapes of Dauria","coordinates":{"lng":115.42544,"lat":49.93022}},{"name":"Lena Pillars","coordinates":{"lng":127.361666666,"lat":61.106944444}},{"name":"Novodevichy Convent","coordinates":{"lng":37.556583333,"lat":55.725972222}},{"name":"Petroglyphs of Lake Onega and the White Sea","coordinates":{"lng":36.012639,"lat":61.7299}},{"name":"Putorana Plateau","coordinates":{"lng":93,"lat":69}},{"name":"Qazan Kremlin","coordinates":{"lng":49.10724,"lat":55.797442}},{"name":"Solovetsky Islands","coordinates":{"lng":35.710556,"lat":65.024444}},{"name":"Solovetsky state Museum-reserve","coordinates":{"lng":35.7105,"lat":65.0248}},{"name":"Struve Geodetic Arc","coordinates":{"lng":25.649444444,"lat":52.289444444}},{"name":"Sviyazhsk Assumption Monastery","coordinates":{"lng":48.652451,"lat":55.770124}},{"name":"Trinity Lavra of St. Sergius","coordinates":{"lng":38.13065,"lat":56.31035}},{"name":"Uvs Nuur Basin","coordinates":{"lng":92.71972,"lat":50.275}},{"name":"Virgin Komi Forests","coordinates":{"lng":60.15,"lat":65.06666667}},{"name":"Volcanoes of Kamchatka","coordinates":{"lng":157.8299,"lat":52}},{"name":"Western Caucasus","coordinates":{"lng":40,"lat":44}},{"name":"White Monuments of Vladimir and Suzdal","coordinates":{"lng":40.4167,"lat":56.15}},{"name":"Zapovednik Wrangel Island","coordinates":{"lng":179.4,"lat":71.233333333}}],"LTU":[{"name":"Cultural Reserve of Kernavė","coordinates":{"lng":24.841666666,"lat":54.880555555}},{"name":"Curonian Spit","coordinates":{"lng":20.970833333,"lat":55.274444444}},{"name":"Modernist Kaunas: Architecture of Optimism, 1919-1939","coordinates":{"lng":23.929167,"lat":54.896944}},{"name":"Struve Geodetic Arc","coordinates":{"lng":25.649444444,"lat":52.289444444}},{"name":"Vilnius Old Town","coordinates":{"lng":25.283333333,"lat":54.683333333}}],"LKA":[{"name":"Anuradhapura","coordinates":{"lng":80.410833333,"lat":8.335}},{"name":"Atamasthana","coordinates":null},{"name":"Central Highlands of Sri Lanka","coordinates":{"lng":80.8021,"lat":7.45245}},{"name":"Dambulla cave temple","coordinates":{"lng":80.6483403,"lat":7.856563}},{"name":"Kandy","coordinates":{"lng":80.635,"lat":7.293055555}},{"name":"Old Town of Galle and its Fortifications","coordinates":{"lng":80.21861111,"lat":6.021388889}},{"name":"Polonnaruwa","coordinates":{"lng":81,"lat":7.933333333}},{"name":"Sigiriya","coordinates":{"lng":80.759722222,"lat":7.956944444}},{"name":"Sinharaja Forest Reserve","coordinates":{"lng":80.28,"lat":6.24}}],"PAK":[{"name":"Buddhist Ruins of Takht-i-Bahi and Neighbouring City Remains at Sahr-i-Bahlol","coordinates":{"lng":71.94583333,"lat":34.32083333}},{"name":"Fort and Shalamar Gardens in Lahore","coordinates":{"lng":74.30972222,"lat":31.59027778}},{"name":"Historical Monuments at Makli, Thatta","coordinates":{"lng":67.898611111,"lat":24.756388888}},{"name":"Mohenjo-daro","coordinates":{"lng":68.138888888,"lat":27.329166666}},{"name":"Rohtas Fort","coordinates":{"lng":73.576416666,"lat":32.965277777}},{"name":"Taxila","coordinates":{"lng":72.7875,"lat":33.745833333}}],"SYR":[{"name":"Ancient City of Aleppo","coordinates":{"lng":37.15,"lat":36.18333333}},{"name":"Ancient City of Bosra","coordinates":{"lng":36.48166667,"lat":32.51805556}},{"name":"Ancient City of Damascus","coordinates":{"lng":36.30639,"lat":33.51111222}},{"name":"ancient village of Northern Syria","coordinates":{"lng":36.844166944,"lat":36.334166944}},{"name":"Bosra","coordinates":{"lng":36.483333333,"lat":32.516666666}},{"name":"Crac des Chevaliers and Qal’at Salah El-Din","coordinates":{"lng":36.26305556,"lat":34.78166667}},{"name":"Dead Cities","coordinates":{"lng":36.84416667,"lat":36.33416667}},{"name":"Palmyra","coordinates":{"lng":38.267222,"lat":34.56}},{"name":"Sitt er-Rum (Syria)","coordinates":{"lng":36.830138888,"lat":36.310722222}}],"JOR":[{"name":"Al Maghtas","coordinates":{"lng":35.550277777,"lat":31.837222222}},{"name":"Petra","coordinates":{"lng":35.440277777,"lat":30.328888888}},{"name":"Qasr Amra","coordinates":{"lng":36.587305555,"lat":31.80175}},{"name":"Salt","coordinates":{"lng":35.727222222,"lat":32.039166666}},{"name":"Umm ar-Rasas","coordinates":{"lng":35.919722222,"lat":31.499722222}},{"name":"Umm el-Jimal","coordinates":{"lng":36.369722222,"lat":32.326666666}},{"name":"Wadi Rum","coordinates":{"lng":35.419927777,"lat":29.5765}}],"ETH":[{"name":"Axum","coordinates":{"lng":38.721522,"lat":14.125005}},{"name":"Bale Mountains National Park","coordinates":{"lng":39.75,"lat":6.75}},{"name":"Fasil Ghebbi","coordinates":{"lng":37.469722222,"lat":12.608055555}},{"name":"Harar Jugol, the Fortified Historic Town","coordinates":{"lng":42.1372,"lat":9.3091}},{"name":"Konso Cultural Landscape","coordinates":{"lng":37.48306,"lat":5.25}},{"name":"Lalibela Cross","coordinates":null},{"name":"Lower Valley of the Awash","coordinates":{"lng":40.5794,"lat":11.1}},{"name":"Melka Kunture","coordinates":{"lng":38.608333333,"lat":8.7025}},{"name":"Monolithic churches in Lalibela","coordinates":{"lng":39.04042,"lat":12.02935}},{"name":"Omo River","coordinates":{"lng":36.0138,"lat":4.4969}},{"name":"Ruins of Aksum","coordinates":{"lng":38.71861,"lat":14.13019}},{"name":"Simien Mountains National Park","coordinates":{"lng":38.066666666,"lat":13.183333333}},{"name":"The Gedeo Cultural Landscape","coordinates":{"lng":38.6667,"lat":5.1167}},{"name":"Tiya archaeological site","coordinates":{"lng":38.61211111,"lat":8.43491667}}],"MEX":[{"name":"Agave Landscape and Ancient Industrial Facilities of Tequila","coordinates":{"lng":-103.769989,"lat":20.628286}},{"name":"Aqueduct of Padre Tembleque","coordinates":{"lng":-98.662222222,"lat":19.836388888}},{"name":"Calakmul","coordinates":{"lng":-89.810555555,"lat":18.105}},{"name":"Calakmul Biosphere Reserve","coordinates":{"lng":-89.548,"lat":18.612}},{"name":"Casa de la Corregidora","coordinates":{"lng":-100.389991,"lat":20.593362}},{"name":"Casas Grandes","coordinates":{"lng":-107.95556,"lat":30.37583}},{"name":"Chichen Itza","coordinates":{"lng":-88.568611111,"lat":20.683055555}},{"name":"Church of Santo Domingo, Puebla","coordinates":{"lng":-98.19805556,"lat":19.04694444}},{"name":"Ciudad Universitaria","coordinates":{"lng":-99.18805556,"lat":19.33222222}},{"name":"El Camino Real de Tierra Adentro","coordinates":{"lng":-102.379166666,"lat":22.608055555}},{"name":"El Pinacate y Gran Desierto de Altar Biosphere Reserve","coordinates":{"lng":-113.91666667,"lat":32}},{"name":"Franciscan Missions in the Sierra Gorda","coordinates":{"lng":-99.463888888,"lat":21.203888888}},{"name":"Historic Centre of Mexico City and Xochimilco","coordinates":{"lng":-99.13278,"lat":19.41833}},{"name":"Historic Centre of Morelia","coordinates":{"lng":-101.1833333,"lat":19.7}},{"name":"Historic Centre of Oaxaca and Archaeological Site of Monte Albán","coordinates":{"lng":-96.72167,"lat":17.06194}},{"name":"Historic Centre of Puebla","coordinates":{"lng":-98.20833333,"lat":19.04722222}},{"name":"Historic Fortified Town of Campeche","coordinates":{"lng":-90.54166667,"lat":19.84722222}},{"name":"Historic Town of Guanajuato and Adjacent Mines","coordinates":{"lng":-101.256666666,"lat":21.017777777}},{"name":"Hospicio Cabañas","coordinates":{"lng":-103.337333333,"lat":20.676897222}},{"name":"Huichol route to Huiricuta","coordinates":{"lng":-104.166666666,"lat":22.15}},{"name":"Islands and Protected Areas of the Gulf of California","coordinates":{"lng":-111.672778,"lat":27.753056}},{"name":"Luis Barragán House and Studio","coordinates":{"lng":-99.1925,"lat":19.41111111}},{"name":"Monarch Butterfly Biosphere Reserve","coordinates":{"lng":-100.241666666,"lat":19.606388888}},{"name":"Monasteries on the slopes of Popocatépetl","coordinates":{"lng":-98.89778,"lat":18.93472}},{"name":"Palenque","coordinates":{"lng":-92.046388888,"lat":17.484166666}},{"name":"Palenque  National Park","coordinates":{"lng":-92.046388888,"lat":17.484166666}},{"name":"Parish and Ex monastery of All Saints, Zempoala, Hidalgo, Mexico","coordinates":{"lng":-98.6693474,"lat":19.9152754}},{"name":"Pre-Hispanic Town of Uxmal","coordinates":{"lng":-89.7703,"lat":20.3617}},{"name":"Prehistoric Caves of Yagul and Mitla in the Central Valley of Oaxaca","coordinates":{"lng":-96.42111111,"lat":16.95083333}},{"name":"Revillagigedo Islands","coordinates":{"lng":-112.763888888,"lat":18.821388888}},{"name":"Rock Paintings of Sierra de San Francisco","coordinates":{"lng":-112.916111111,"lat":27.655555555}},{"name":"Sian Ka'an","coordinates":{"lng":-87.791666666,"lat":19.383333333}},{"name":"Tajín Veracruz","coordinates":{"lng":-97.378241666,"lat":20.448058333}},{"name":"Tehuacán-Cuicatlán Biosphere Reserve","coordinates":{"lng":-97.3994,"lat":18.2114}},{"name":"Temple of the Inscriptions","coordinates":{"lng":-92.0468,"lat":17.4836}},{"name":"Templo y exconvento de San Francisco","coordinates":{"lng":-99.341926,"lat":19.904609}},{"name":"Teotihuacan","coordinates":{"lng":-98.843888888,"lat":19.6925}},{"name":"Tlacotalpan","coordinates":{"lng":-95.656273611,"lat":18.613025}},{"name":"Upper Gulf of California and Colorado River Delta biosphere reserve","coordinates":{"lng":-114.5425,"lat":31.737222222}},{"name":"Whale Sanctuary of El Vizcaino","coordinates":null},{"name":"Xochicalco","coordinates":{"lng":-99.296638888,"lat":18.804305555}}],"HUN":[{"name":"Budapest, including the Banks of the Danube, the Buda Castle Quarter and Andrássy Avenue","coordinates":{"lng":19.07067,"lat":47.48242}},{"name":"Caves of Aggtelek Karst and Slovak Karst","coordinates":{"lng":20.495324815,"lat":48.471776789}},{"name":"Early Christian Necropolis of Pécs","coordinates":{"lng":18.227777777,"lat":46.074444444}},{"name":"Fertö / Neusiedlersee Cultural Landscape","coordinates":{"lng":16.73472222,"lat":47.80055556}},{"name":"Hollókő","coordinates":{"lng":19.591666666,"lat":47.996111111}},{"name":"Hortobágy National Park","coordinates":{"lng":21.15678,"lat":47.59458}},{"name":"Neusiedl Lake","coordinates":{"lng":16.75,"lat":47.833333333}},{"name":"Pannonhalma Archabbey","coordinates":{"lng":17.761111111,"lat":47.552777777}},{"name":"Tokaj Wine Region Historic Cultural Landscape","coordinates":{"lng":21.35,"lat":48.15}}],"POL":[{"name":"Ancient and Primeval Beech Forests of the Carpathians and Other Regions of Europe","coordinates":{"lng":15,"lat":49}},{"name":"Auschwitz","coordinates":{"lng":19.178333333,"lat":50.035833333}},{"name":"Białowieża Forest","coordinates":{"lng":23.95,"lat":52.75}},{"name":"Centennial Hall","coordinates":{"lng":17.077222222,"lat":51.106944444}},{"name":"Churches of Peace","coordinates":{"lng":16.189041,"lat":51.053914}},{"name":"Kalwaria Zebrzydowska park","coordinates":{"lng":19.670719444,"lat":49.860319444}},{"name":"Kraków Old Town","coordinates":{"lng":19.93688,"lat":50.06209}},{"name":"Krzemionki Prehistoric Striped Flint Mining Region","coordinates":{"lng":21.5023,"lat":50.968}},{"name":"Malbork Castle","coordinates":{"lng":19.027777777,"lat":54.039722222}},{"name":"Medieval Town of Toruń","coordinates":{"lng":18.604722222,"lat":53.010277777}},{"name":"Muskau Park","coordinates":{"lng":14.723229,"lat":51.547559}},{"name":"Old City of Zamość","coordinates":{"lng":23.258611,"lat":50.720556}},{"name":"Tarnowskie Góry Lead-Silver-Zinc Mine and its Underground Water Management System","coordinates":{"lng":18.85123,"lat":50.4427}},{"name":"Warsaw Old Town","coordinates":{"lng":21.012222222,"lat":52.249722222}},{"name":"Wieliczka and Bochnia Royal Salt Mines","coordinates":{"lng":20.06388889,"lat":49.97916667}},{"name":"Wooden churches of Southern Lesser Poland","coordinates":{"lng":21.186051,"lat":49.630591}},{"name":"Wooden tserkvas of Carpathian region in Poland and Ukraine","coordinates":{"lng":21.0322,"lat":49.5339}}],"AUS":[{"name":"Australian Convict Sites","coordinates":{"lng":150.9944444,"lat":-33.37833333}},{"name":"Australian Fossil Mammal Sites (Riversleigh / Naracoorte)","coordinates":{"lng":138.7166667,"lat":-19.08333333}},{"name":"Budj Bim","coordinates":{"lng":141.917,"lat":-38.0667}},{"name":"Gondwana Rainforests of Australia","coordinates":{"lng":149.6,"lat":-29.6}},{"name":"Great Barrier Reef","coordinates":{"lng":145.8,"lat":-16.4}},{"name":"Greater Blue Mountains Area","coordinates":{"lng":150,"lat":-33.7}},{"name":"Heard Island and McDonald Islands","coordinates":{"lng":73.517,"lat":-53.093527777}},{"name":"K'gari","coordinates":{"lng":153.15,"lat":-25.24}},{"name":"Kakadu National Park","coordinates":{"lng":132.5195,"lat":-13.0055}},{"name":"Lord Howe Island Group","coordinates":{"lng":159.079723,"lat":-31.556175}},{"name":"Macquarie Island","coordinates":{"lng":158.86,"lat":-54.63}},{"name":"Murujuga National Park","coordinates":{"lng":116.810972222,"lat":-20.575277777}},{"name":"Ningaloo Reef","coordinates":{"lng":113.628,"lat":-22.739}},{"name":"Purnululu National Park","coordinates":{"lng":128.546055,"lat":-17.448789}},{"name":"Royal Exhibition Building and Carlton Gardens","coordinates":{"lng":144.9702778,"lat":-37.80611111}},{"name":"Shark Bay","coordinates":{"lng":113.604655,"lat":-25.92897}},{"name":"Sydney Opera House","coordinates":{"lng":151.214897,"lat":-33.857058}},{"name":"Tasmanian Wilderness","coordinates":{"lng":146.1729,"lat":-42.5957}},{"name":"Uluṟu-Kata Tjuṯa National Park","coordinates":{"lng":130.985732,"lat":-25.322076}},{"name":"Wet Tropics of Queensland","coordinates":{"lng":145.8,"lat":-17.2}},{"name":"Willandra Lakes Region","coordinates":{"lng":143.101406,"lat":-33.618142}}],"NPL":[{"name":"Chitwan National Park","coordinates":{"lng":84.333333,"lat":27.5}},{"name":"Kathmandu Valley","coordinates":{"lng":85.308583333,"lat":27.703944444}},{"name":"Lumbini","coordinates":{"lng":83.275829,"lat":27.4814}},{"name":"Sagarmatha National Park","coordinates":{"lng":86.693033,"lat":27.891069}}],"MUS":[{"name":"Aapravasi Ghat","coordinates":{"lng":57.503056,"lat":-20.158611}},{"name":"Le Morne Brabant","coordinates":{"lng":57.313611111,"lat":-20.460555555}}],"EGY":[{"name":"Abu Mena","coordinates":{"lng":29.66349,"lat":30.84105}},{"name":"Islamic Cairo","coordinates":{"lng":31.2627,"lat":30.046}},{"name":"Memphis and its Necropolis – the Pyramid Fields from Giza to Dahshur","coordinates":{"lng":31.1304,"lat":29.976}},{"name":"Nubian Monuments from Abu Simbel to Philae","coordinates":{"lng":31.62611111,"lat":22.33638889}},{"name":"Saint Catherine Area","coordinates":{"lng":33.97543,"lat":28.55623}},{"name":"Thebes","coordinates":{"lng":32.610277777,"lat":25.720555555}},{"name":"Wadi Al-Hitan","coordinates":{"lng":30.043888888,"lat":29.270833333}}],"MLI":[{"name":"Bandiagara Escarpment","coordinates":{"lng":-3.316666666,"lat":14.416666666}},{"name":"Old Towns of Djenné","coordinates":{"lng":-4.555,"lat":13.90639}},{"name":"Timbuktu","coordinates":{"lng":-3.00742,"lat":16.77348}},{"name":"Tomb of Askia","coordinates":{"lng":-0.044444,"lat":16.289722}}],"GRC":[{"name":"Acropolis of Athens","coordinates":{"lng":23.726111111,"lat":37.971666666}},{"name":"Aigai","coordinates":{"lng":22.3227596,"lat":40.4779658}},{"name":"archaeological Site of Delphi","coordinates":{"lng":22.500215,"lat":38.482015}},{"name":"Archaeological Sites of Mycenae and Tiryns","coordinates":{"lng":22.75,"lat":37.73333333}},{"name":"Delos","coordinates":{"lng":25.26904,"lat":37.38948}},{"name":"Medieval City of Rhodes","coordinates":{"lng":28.226937,"lat":36.443058}},{"name":"Meteora","coordinates":{"lng":21.626666666,"lat":39.7125}},{"name":"Minoan Palatial Centres","coordinates":{"lng":25.1625,"lat":35.297222222}},{"name":"Monasteries of Daphni, Hosios Loukas and Nea Moni of Chios","coordinates":{"lng":22.75,"lat":38.4}},{"name":"Mount Athos","coordinates":{"lng":24.327222222,"lat":40.158333333}},{"name":"Mystras","coordinates":{"lng":22.3673,"lat":37.074}},{"name":"Old town of Corfu","coordinates":{"lng":19.92193,"lat":39.624658}},{"name":"Olympia","coordinates":{"lng":21.63,"lat":37.638333333}},{"name":"Paleochristian and Byzantine monuments of Thessaloniki","coordinates":{"lng":22.9478,"lat":40.6386}},{"name":"Philippi","coordinates":{"lng":24.284576,"lat":41.012072}},{"name":"Pythagoreion and Heraion of Samos","coordinates":{"lng":26.886635,"lat":37.672043}},{"name":"Sanctuary of Asclepius, Epidaurus","coordinates":{"lng":23.0744,"lat":37.5986}},{"name":"Temple of Apollo Epicurius in Bassae","coordinates":{"lng":21.900387,"lat":37.429655}},{"name":"The Historic Centre (Chorá) with the Monastery of Saint-John the Theologian and the Cave of the Apocalypse on the Island of Pátmos","coordinates":{"lng":26.55,"lat":37.3}},{"name":"Zagori","coordinates":{"lng":20.7,"lat":39.8667}}],"TUR":[{"name":"Ani","coordinates":{"lng":43.572777777,"lat":40.5075}},{"name":"Aphrodisias","coordinates":{"lng":28.72361,"lat":37.70833}},{"name":"Arslantepe","coordinates":{"lng":38.36111111,"lat":38.38194444}},{"name":"Bursa and Cumalıkızık: the Birth of the Ottoman Empire","coordinates":{"lng":29.06234,"lat":40.18473}},{"name":"Çatalhöyük","coordinates":{"lng":32.828333333,"lat":37.6675}},{"name":"City of Safranbolu","coordinates":{"lng":32.68972,"lat":41.26}},{"name":"Divriği Great Mosque and Hospital","coordinates":{"lng":38.121583333,"lat":39.371222222}},{"name":"Diyarbakır Fortress and Hevsel Gardens Cultural Landscape","coordinates":{"lng":40.227277777,"lat":37.910861111}},{"name":"Ephesus","coordinates":{"lng":27.35944,"lat":37.92917}},{"name":"Göbekli Tepe","coordinates":{"lng":38.9225,"lat":37.223055555}},{"name":"Gordion","coordinates":{"lng":31.97857,"lat":39.650103}},{"name":"Göreme National Park and the Rock Sites of Cappadocia","coordinates":{"lng":34.85,"lat":38.66667}},{"name":"Hattusha: the Hittite Capital","coordinates":{"lng":34.62056,"lat":40.01389}},{"name":"Hierapolis-Pamukkale","coordinates":{"lng":29.123333,"lat":37.923889}},{"name":"Historic Areas of Istanbul","coordinates":{"lng":28.97993,"lat":41.00847}},{"name":"Mount Nemrut","coordinates":{"lng":38.740830555,"lat":37.980738888}},{"name":"Pergamon and its Multi-Layered Cultural Landscape","coordinates":{"lng":27.18,"lat":39.12583}},{"name":"Sardis and the Lydian Tumuli of Bin Tepe","coordinates":{"lng":28.045277777,"lat":38.481944444}},{"name":"Selimiye Mosque","coordinates":{"lng":26.559444,"lat":41.678056}},{"name":"Troy","coordinates":{"lng":26.238888888,"lat":39.9575}},{"name":"Wooden Hypostyle Mosques of Medieval Anatolia","coordinates":{"lng":30.529575,"lat":38.755036111}},{"name":"Xanthos-Letoon","coordinates":{"lng":29.32028,"lat":36.335}}],"VNM":[{"name":"Cat Ba Island","coordinates":{"lng":106.999722222,"lat":20.8}},{"name":"Citadel of the Hồ Dynasty","coordinates":{"lng":105.604722222,"lat":20.078055555}},{"name":"Complex of Huế Monuments","coordinates":null},{"name":"Ha Long Bay","coordinates":{"lng":107.2,"lat":20.9}},{"name":"Hội An","coordinates":{"lng":108.33265,"lat":15.877669444}},{"name":"Hoi An Ancient Town","coordinates":{"lng":108.328631,"lat":15.877135}},{"name":"Imperial Citadel of Thang Long","coordinates":{"lng":105.83972,"lat":21.0325}},{"name":"Khiêm Cung Ký stele","coordinates":null},{"name":"Mỹ Sơn","coordinates":{"lng":108.124446,"lat":15.76324}},{"name":"Phong Nha–Ke Bang National Park","coordinates":{"lng":106.15,"lat":17.533333333}},{"name":"The Complex of Yen Tu Monuments and Landscape","coordinates":{"lng":106.719,"lat":21.0768}},{"name":"Tràng An","coordinates":{"lng":105.9156,"lat":20.2557}}],"MLT":[{"name":"Hypogeum of Ħal Saflieni","coordinates":{"lng":14.506883333,"lat":35.869558333}},{"name":"Megalithic Temples of Malta","coordinates":{"lng":14.26944444,"lat":36.04916667}},{"name":"Valletta","coordinates":{"lng":14.5125,"lat":35.897777777}}],"OMN":[{"name":"Aflaj Irrigation System of Oman","coordinates":{"lng":57.536056,"lat":22.998889}},{"name":"Arabian Oryx Sanctuary","coordinates":{"lng":57,"lat":19.7}},{"name":"Bahla Fort","coordinates":{"lng":57.3007,"lat":22.9644}},{"name":"Bat, Al-Khutm and Al-Ayn archaeological sites","coordinates":{"lng":56.745,"lat":23.27}},{"name":"Bibi Maryam Mausoleum","coordinates":{"lng":59.373114576,"lat":22.697645947}},{"name":"Land of Frankincense","coordinates":{"lng":53.647591666,"lat":18.253333333}},{"name":"Qalhat","coordinates":{"lng":59.369896,"lat":22.699996}}],"SAU":[{"name":"'Uruq Bani Ma'arid","coordinates":{"lng":45.903888888,"lat":19.336944444}},{"name":"Al-Ahsa Oasis","coordinates":{"lng":49.621944,"lat":25.429444}},{"name":"Al-Balad, Jeddah","coordinates":{"lng":39.2,"lat":21.4833}},{"name":"At-Turaif District","coordinates":{"lng":46.575556,"lat":24.733333}},{"name":"Bir Hima Rock Petroglyphs and Inscriptions","coordinates":{"lng":44.451839,"lat":18.249239}},{"name":"Hegra","coordinates":{"lng":37.952778,"lat":26.791667}},{"name":"Qaryat al-Faw","coordinates":{"lng":45.15,"lat":19.7833}},{"name":"Rock Art in the Hail Region of Saudi Arabia","coordinates":{"lng":40.9,"lat":28}}],"COL":[{"name":"Chiribiquete National Park","coordinates":{"lng":-72.8054,"lat":0.700607}},{"name":"Colombian coffee growing axis","coordinates":{"lng":-75.617014706,"lat":4.902632679}},{"name":"Historic Centre of Santa Cruz de Mompox","coordinates":{"lng":-74.423083888,"lat":9.240472222}},{"name":"Inca road system","coordinates":{"lng":-69.59166667,"lat":-18.25}},{"name":"Los Katíos National Park","coordinates":{"lng":-77.15,"lat":7.8}},{"name":"Malpelo Fauna and Flora Sanctuary","coordinates":{"lng":-81.6,"lat":4}},{"name":"Port, Fortresses and Group of Monuments, Cartagena","coordinates":{"lng":-75.53333333,"lat":10.41666667}},{"name":"San Agustin archeological park","coordinates":{"lng":-76.2333,"lat":1.91667}},{"name":"San Basilio de Palenque","coordinates":{"lng":-75.199013,"lat":10.103318}},{"name":"Santa Cruz de Mompós","coordinates":{"lng":-74.425,"lat":9.239444444}},{"name":"Tierradentro","coordinates":{"lng":-76.033,"lat":2.583}}],"CHL":[{"name":"Chinchorro culture","coordinates":null},{"name":"Chinchorro mummies","coordinates":{"lng":-70.321114,"lat":-18.480596}},{"name":"Churches of Chiloé","coordinates":{"lng":-73.766666666,"lat":-42.5}},{"name":"Historic Quarter of the Seaport City of Valparaíso","coordinates":{"lng":-71.628,"lat":-33.04063889}},{"name":"Humberstone and Santa Laura Saltpeter Works","coordinates":{"lng":-69.794444444,"lat":-20.208333333}},{"name":"Inca road system","coordinates":{"lng":-69.59166667,"lat":-18.25}},{"name":"Rapa Nui National Park","coordinates":{"lng":-109.348579,"lat":-27.072877}},{"name":"Settlement and Artificial Mummification of the Chinchorro Culture in the Arica and Parinacota Region","coordinates":{"lng":-70.322,"lat":-18.482}},{"name":"Sewell","coordinates":{"lng":-70.3825,"lat":-34.085}}],"SLV":[{"name":"Joya de Cerén","coordinates":{"lng":-89.356158333,"lat":13.827494444}}],"ARG":[{"name":"Cueva de las Manos","coordinates":{"lng":-70.666666666,"lat":-47.15}},{"name":"Iguazú National Park World Heritage Site","coordinates":{"lng":-54.4,"lat":-25.666666666}},{"name":"Inca road system","coordinates":{"lng":-69.59166667,"lat":-18.25}},{"name":"Ischigualasto / Talampaya Natural Parks","coordinates":{"lng":-67.833333,"lat":-29.8}},{"name":"Jesuit Block and Estancias of Córdoba","coordinates":{"lng":-64.435277777,"lat":-31.656111111}},{"name":"Jesuit missions among the Guaraní","coordinates":{"lng":-55.531669444,"lat":-27.255280555}},{"name":"Los Alerces National Park","coordinates":{"lng":-71.89888889,"lat":-42.8075}},{"name":"Los Glaciares National Park","coordinates":{"lng":-73.234164314,"lat":-50.330530387}},{"name":"Navy Petty-Officers School of Mechanics","coordinates":{"lng":-58.46361111,"lat":-34.53841667}},{"name":"Quebrada de Humahuaca","coordinates":{"lng":-65.348861111,"lat":-23.199861111}},{"name":"The Architectural Work of Le Corbusier","coordinates":{"lng":6.829336,"lat":46.468414}},{"name":"Valdes Peninsula","coordinates":{"lng":-63.933333,"lat":-42.5}}],"BLZ":[{"name":"Belize Barrier Reef","coordinates":{"lng":-88.052777777,"lat":17.2625}}],"MMR":[{"name":"Bagan","coordinates":{"lng":94.86,"lat":21.1725}},{"name":"Pyu Ancient Cities","coordinates":{"lng":95.81861111,"lat":22.47}}],"TUN":[{"name":"Archaeological site of Carthage","coordinates":{"lng":10.33084,"lat":36.85788}},{"name":"Djerba","coordinates":{"lng":10.8833,"lat":33.7837}},{"name":"Dougga","coordinates":{"lng":9.22027778,"lat":36.42333333}},{"name":"Ichkeul National Park","coordinates":{"lng":9.655444,"lat":37.123444}},{"name":"Kairouan","coordinates":{"lng":10.1,"lat":35.683333333}},{"name":"Medina of Sousse","coordinates":{"lng":10.6386,"lat":35.8278}},{"name":"Medina of Tunis","coordinates":{"lng":10.1700595,"lat":36.7990274}},{"name":"Punic Town of Kerkuane and its Necropolis","coordinates":{"lng":11.0992,"lat":36.9464}},{"name":"Roman amphitheatre of El Jem","coordinates":{"lng":10.70694444,"lat":35.29638889}}],"BOL":[{"name":"El Fuerte de Samaipata","coordinates":{"lng":-63.818988888,"lat":-18.178355555}},{"name":"Historic Center of Sucre","coordinates":{"lng":-65.259626,"lat":-19.047929}},{"name":"Historic City of Sucre","coordinates":{"lng":-65.259591944,"lat":-19.04799}},{"name":"Inca road system","coordinates":{"lng":-69.59166667,"lat":-18.25}},{"name":"Jesuit Missions of Chiquitos","coordinates":{"lng":-62.5072,"lat":-16.2748}},{"name":"Noel Kempff Mercado National Park","coordinates":{"lng":-60.84667,"lat":-14.23028}},{"name":"Pantanal","coordinates":{"lng":-57.5,"lat":-17.4}},{"name":"Potosí","coordinates":{"lng":-65.753333333,"lat":-19.589166666}},{"name":"Tiwanaku","coordinates":{"lng":-68.673333333,"lat":-16.554722222}}],"TKM":[{"name":"Cold Winter Deserts of Turan","coordinates":{"lng":79.034166666,"lat":44.025833333}},{"name":"Konye-Urgench","coordinates":{"lng":59.158611111,"lat":42.316666666}},{"name":"Merv","coordinates":{"lng":62.1925,"lat":37.662777777}},{"name":"Nisa","coordinates":{"lng":58.212408333,"lat":37.951147222}},{"name":"Silk Roads: Zarafshan-Karakum Corridor","coordinates":{"lng":69.685558333,"lat":39.441488888}}],"NIC":[{"name":"León Cathedral","coordinates":{"lng":-86.878097222,"lat":12.434997222}},{"name":"Ruínas de León Viejo","coordinates":{"lng":-86.617797222,"lat":12.400547222}}],"PAN":[{"name":"Archaeological Site of Panamá Viejo and Historic District of Panamá","coordinates":{"lng":-79.540555555,"lat":8.951111111}},{"name":"Coiba","coordinates":{"lng":-81.766667,"lat":7.433333}},{"name":"Darién National Park","coordinates":{"lng":-77.54722222,"lat":7.73611111}},{"name":"fortifications on the Caribbean Side of Panama: Portobelo-San Lorenzo","coordinates":{"lng":-79.655833333,"lat":9.553888888}},{"name":"Talamanca Range-La Amistad Reserves","coordinates":{"lng":-82.9386,"lat":9.4069}},{"name":"The Colonial Transisthmian Route of Panamá","coordinates":{"lng":-79.534741666,"lat":8.952430555}}],"ESP":[{"name":"Alhambra, Generalife and Albayzín, Granada","coordinates":{"lng":-3.594444444,"lat":37.176666666}},{"name":"Ancient and Primeval Beech Forests of the Carpathians and Other Regions of Europe","coordinates":{"lng":15,"lat":49}},{"name":"Antequera Dolmens Site","coordinates":{"lng":-4.548055555,"lat":37.023333333}},{"name":"Aranjuez Cultural Landscape","coordinates":{"lng":-3.60934,"lat":40.0364}},{"name":"Archaeological Ensemble of Mérida","coordinates":{"lng":-6.33869,"lat":38.91597}},{"name":"Archaeological Ensemble of Tárraco","coordinates":{"lng":1.259305556,"lat":41.11472222}},{"name":"Atapuerca","coordinates":{"lng":-3.519466,"lat":42.350092}},{"name":"Basilica and Expiatory Church of the Holy Family","coordinates":{"lng":2.17433,"lat":41.40369}},{"name":"Burgos Cathedral","coordinates":{"lng":-3.704472222,"lat":42.340805555}},{"name":"Campus de Alcalá de Henares, University of Alcalá","coordinates":{"lng":-3.363085438,"lat":40.482902981}},{"name":"Catalan Romanesque Churches of the Vall de Boí","coordinates":{"lng":0.80361111,"lat":42.50472222}},{"name":"Cathedral of the Savior in his Epiphany of Zaragoza","coordinates":{"lng":-0.87585,"lat":41.65456}},{"name":"Cathedral, Alcázar and Archivo de Indias in Seville","coordinates":{"lng":-5.99155,"lat":37.38384}},{"name":"Cave of Altamira and Paleolithic Cave Art of Northern Spain","coordinates":{"lng":-4.11611111,"lat":43.3825}},{"name":"church of San Miguel Arcángel","coordinates":{"lng":-0.759666666,"lat":42.521027777}},{"name":"Cultural Landscape of the Serra de Tramuntana","coordinates":{"lng":2.69472,"lat":39.73083}},{"name":"Doñana National Park","coordinates":{"lng":-6.44,"lat":37.02}},{"name":"Garajonay National Park","coordinates":{"lng":-17.23722222,"lat":28.12625}},{"name":"General Archive of the Indies","coordinates":{"lng":-5.993083333,"lat":37.384777777}},{"name":"Heritage of Mercury. Almadén and Idrija","coordinates":{"lng":14.026666666,"lat":46.003888888}},{"name":"historic centre of Córdoba","coordinates":{"lng":-4.779722222,"lat":37.879194444}},{"name":"Historic City of Toledo","coordinates":{"lng":-4.024613,"lat":39.856901}},{"name":"Historic Walled Town of Cuenca","coordinates":{"lng":-2.13175,"lat":40.0766}},{"name":"Ibiza, Biodiversity and Culture","coordinates":{"lng":1.435194444,"lat":38.91113889}},{"name":"Las Médulas","coordinates":{"lng":-6.759002,"lat":42.458699}},{"name":"Llotja de la Seda","coordinates":{"lng":-0.378333333,"lat":39.474444444}},{"name":"Los Trepadores rock shelter","coordinates":{"lng":-0.682777777,"lat":41.016944444}},{"name":"Lugo Cathedral","coordinates":{"lng":-7.5583,"lat":43.0092}},{"name":"Madinat Al-Zahra","coordinates":{"lng":-4.867785472,"lat":37.886080468}},{"name":"Monasteries of San Millán de la Cogolla","coordinates":{"lng":-2.86505,"lat":42.325833333}},{"name":"Monastery and Site of the Escurial, Madrid","coordinates":{"lng":-4.14777778,"lat":40.58916667}},{"name":"Monte Perdido Massif","coordinates":{"lng":0.030877,"lat":42.671002}},{"name":"Monuments of Oviedo and the Kingdom of the Asturias","coordinates":{"lng":-5.86583333,"lat":43.37888889}},{"name":"Mudejar Architecture of Aragon","coordinates":{"lng":-1.10722,"lat":40.34389}},{"name":"Mudéjar architecture of Aragon","coordinates":null},{"name":"Old Town of Ávila with its Extra-Muros Churches","coordinates":{"lng":-4.700111111,"lat":40.656388888}},{"name":"old town of Cáceres","coordinates":{"lng":-6.37,"lat":39.47416667}},{"name":"old town of Santiago de Compostela","coordinates":{"lng":-8.54468,"lat":42.88076}},{"name":"Old Town of Segovia and its Aqueduct","coordinates":{"lng":-4.11675,"lat":40.94847222}},{"name":"Palau de la Música Catalana and Hospital de Sant Pau, Barcelona","coordinates":{"lng":2.175,"lat":41.38778}},{"name":"Palmeral of Elche","coordinates":{"lng":-0.690833333,"lat":38.264444444}},{"name":"Paseo del Prado and Buen Retiro, a landscape of Arts and Sciences","coordinates":{"lng":-3.686528,"lat":40.414139}},{"name":"Poblet Monastery","coordinates":{"lng":1.0825,"lat":41.380833333}},{"name":"Prehistoric Rock-Art Site of the Côa Valley and Siega Verde","coordinates":{"lng":-6.66111,"lat":40.6975}},{"name":"Pyrénées – Mont Perdu World Heritage Site","coordinates":{"lng":0.05,"lat":42.65}},{"name":"Renaissance Monumental Ensembles of Úbeda and Baeza","coordinates":{"lng":-3.37122,"lat":38.01131}},{"name":"Risco Caido","coordinates":{"lng":-15.661255555,"lat":28.043558333}},{"name":"Rock Art of the Mediterranean Basin on the Iberian Peninsula","coordinates":{"lng":-1.033333333,"lat":39.79}},{"name":"Roman Walls of Lugo","coordinates":{"lng":-7.559888888,"lat":43.014194444}},{"name":"Routes of Santiago de Compostela: Camino Francés and Routes of Northern Spain","coordinates":{"lng":-6.414722,"lat":43.335}},{"name":"Royal Monastery of Saint Mary of Guadalupe","coordinates":{"lng":-5.3275,"lat":39.452777777}},{"name":"Salamanca City","coordinates":{"lng":-5.66538084,"lat":40.96736822}},{"name":"San Cristóbal de La Laguna","coordinates":{"lng":-16.316666666,"lat":28.485277777}},{"name":"Sepulchre of Alonso Fernández de Madrigal","coordinates":null},{"name":"Sepulcro de Blasco Muñoz","coordinates":{"lng":-4.697222,"lat":40.655833}},{"name":"Sepulcro de Diego del Águila","coordinates":{"lng":-4.697222,"lat":40.655833}},{"name":"Sepulcro de Doña Beatriz Vázquez","coordinates":{"lng":-4.697222,"lat":40.655833}},{"name":"Sepulcro de Juan Núñez Dávila","coordinates":{"lng":-4.697222,"lat":40.655833}},{"name":"Sepulcro del Chantre don Tacón","coordinates":{"lng":-4.696827667,"lat":40.655836337}},{"name":"Talayotic Culture of Minorca","coordinates":{"lng":3.908888888,"lat":39.9975}},{"name":"Teide National Park","coordinates":{"lng":-16.6181,"lat":28.2647}},{"name":"Tower of Hercules","coordinates":{"lng":-8.406388888,"lat":43.385833333}},{"name":"Trepucó","coordinates":{"lng":4.26553,"lat":39.87394}},{"name":"University and Historic Precinct of Alcalá de Henares","coordinates":{"lng":-3.363131,"lat":40.482925}},{"name":"Walls of Ávila, Puerta de la Mala Ventura","coordinates":{"lng":-4.705308,"lat":40.655604}},{"name":"Walls of Ávila, Puerta de La Santa","coordinates":{"lng":-4.702987,"lat":40.654906}},{"name":"Walls of Ávila, Puerta del Mariscal","coordinates":{"lng":-4.699323,"lat":40.658434}},{"name":"Walls of Ávila, Puerta del Puente","coordinates":{"lng":-4.707331,"lat":40.657448}},{"name":"Works of Antoni Gaudí","coordinates":{"lng":2.027819,"lat":41.363828}}],"LBN":[{"name":"Anjar","coordinates":{"lng":35.929722222,"lat":33.725833333}},{"name":"Baalbek","coordinates":{"lng":36.200556,"lat":34.015363}},{"name":"Byblos","coordinates":{"lng":35.646846,"lat":34.119501}},{"name":"Cathedral of the Holy Cross, Tyre","coordinates":{"lng":35.195138888,"lat":33.270361111}},{"name":"Ouadi Qadisha (the Holy Valley) and the Forest of the Cedars of God (Horsh Arz el-Rab)","coordinates":{"lng":35.951611,"lat":34.282944}},{"name":"Rachid Karami International Fair","coordinates":{"lng":35.825911341,"lat":34.439613877}},{"name":"Tyre","coordinates":{"lng":35.195833,"lat":33.269167}}],"MYS":[{"name":"Archaeological Heritage of the Lenggong Valley","coordinates":{"lng":100.972,"lat":5.06791}},{"name":"Forest Research Institute Malaysia Forest Park Selangor","coordinates":{"lng":101.633333333,"lat":3.233333333}},{"name":"Gunung Mulu National Park","coordinates":{"lng":114.8125,"lat":4.0425}},{"name":"Kinabalu Park","coordinates":{"lng":116.65,"lat":6.15}},{"name":"Melaka and George Town, Historic Cities of the Straits of Malacca","coordinates":null},{"name":"Niah National Park","coordinates":{"lng":113.781389,"lat":3.813889}}],"CAN":[{"name":"Anticosti","coordinates":{"lng":-63.245277777,"lat":49.538611111}},{"name":"Burgess Shale","coordinates":{"lng":-116.467,"lat":51.4333}},{"name":"Canadian Rocky Mountain Parks World Heritage Site","coordinates":{"lng":-116.479722222,"lat":51.424722222}},{"name":"Dinosaur Provincial Park","coordinates":{"lng":-111.485,"lat":50.7617}},{"name":"Grand-Pré","coordinates":{"lng":-64.309167,"lat":45.108889}},{"name":"Gros Morne National Park","coordinates":{"lng":-57.738055555,"lat":49.689444444}},{"name":"Head-Smashed-In Buffalo Jump","coordinates":{"lng":-113.625,"lat":49.7494}},{"name":"Joggins Fossil Cliffs","coordinates":{"lng":-64.418056,"lat":45.751944}},{"name":"Kluane / Wrangell – St. Elias / Glacier Bay / Tatshenshini-Alsek","coordinates":{"lng":-140.992,"lat":61.1975}},{"name":"L'Anse aux Meadows","coordinates":{"lng":-55.531222222,"lat":51.595266666}},{"name":"Miguasha National Park","coordinates":{"lng":-66.369444444,"lat":48.110555555}},{"name":"Mistaken Point Ecological Reserve","coordinates":{"lng":-53.1903,"lat":46.6319}},{"name":"Nahanni National Park Reserve","coordinates":{"lng":-125.852,"lat":61.5971}},{"name":"Ninstints","coordinates":{"lng":-131.2175,"lat":52.098888888}},{"name":"Old Quebec","coordinates":{"lng":-71.210555555,"lat":46.809444444}},{"name":"Old Town Lunenburg","coordinates":{"lng":-64.309166666,"lat":44.376111111}},{"name":"Pimachiowin Aki","coordinates":{"lng":-95,"lat":51}},{"name":"Red Bay National Historic Site","coordinates":{"lng":-56.429527777,"lat":51.726916666}},{"name":"Rideau Canal World Heritage Site","coordinates":{"lng":-75.765125,"lat":44.994386111}},{"name":"Tr'ondëk-Klondike","coordinates":{"lng":-139,"lat":64}},{"name":"Waterton-Glacier International Peace Park","coordinates":{"lng":-113.904166666,"lat":48.996055555}},{"name":"Wood Buffalo National Park","coordinates":{"lng":-112.983,"lat":59.3833}},{"name":"Writing-on-Stone Provincial Park","coordinates":{"lng":-111.617,"lat":49.0819}}],"ROU":[{"name":"Ancient and Primeval Beech Forests of the Carpathians and Other Regions of Europe","coordinates":{"lng":15,"lat":49}},{"name":"churches of Moldavia","coordinates":{"lng":25.933,"lat":47.733}},{"name":"Dacian Fortresses of the Orăștie Mountains","coordinates":{"lng":23.3119,"lat":45.6231}},{"name":"Danube Delta","coordinates":{"lng":29.5,"lat":45.2}},{"name":"Historic Centre of Sighișoara","coordinates":{"lng":24.79222222,"lat":46.21777778}},{"name":"Horezu monastery","coordinates":{"lng":24.0069,"lat":45.1686}},{"name":"Limes Dacicus","coordinates":{"lng":23.159411,"lat":47.180789}},{"name":"Roșia Montană Mining Landscape","coordinates":{"lng":23.130555555,"lat":46.306111111}},{"name":"Sculptural Ensemble of Constantin Brâncuși at Târgu Jiu","coordinates":{"lng":23.285375,"lat":45.037430555}},{"name":"Villages with fortified churches in Transylvania","coordinates":null},{"name":"wooden churches of Maramureș","coordinates":{"lng":24.0558,"lat":47.8194}}],"JPN":[{"name":"Amami-Ōshima Island, Tokunoshima Island, northern part of Okinawa Island, and Iriomote Island","coordinates":{"lng":129.378333333,"lat":28.279166666}},{"name":"Buddhist Monuments in the Hōryū-ji Area","coordinates":{"lng":135.734236,"lat":34.614275}},{"name":"Fujisan, sacred place and source of artistic inspiration","coordinates":{"lng":138.7275,"lat":35.3608}},{"name":"Gusuku Sites and Related Properties of the Kingdom of Ryukyu","coordinates":{"lng":127.683,"lat":26.2086}},{"name":"Hidden Christian Sites in the Nagasaki Region","coordinates":{"lng":128.903889,"lat":32.802222}},{"name":"Himeji Castle","coordinates":{"lng":134.693611111,"lat":34.839444444}},{"name":"Hiraizumi – Temples, Gardens and Archaeological Sites Representing the Buddhist Pure Land","coordinates":{"lng":141.11027778,"lat":38.98861111}},{"name":"Hiroshima Peace Memorial","coordinates":{"lng":132.453611111,"lat":34.395555555}},{"name":"Historic Monuments of Ancient Kyoto","coordinates":{"lng":135.752778,"lat":35.060278}},{"name":"Historic Monuments of Ancient Nara","coordinates":{"lng":135.83944,"lat":34.67556}},{"name":"Historic Villages of Shirakawa-gō and Gokayama","coordinates":{"lng":136.90638889,"lat":36.25694444}},{"name":"Itsukushima Shrine","coordinates":{"lng":132.320105,"lat":34.29577}},{"name":"Iwami Ginzan Silver Mine","coordinates":{"lng":132.4375,"lat":35.107222}},{"name":"Jōmon Prehistoric Sites in Northern Japan","coordinates":{"lng":140.552216666,"lat":41.065555555}},{"name":"Kyoto Prefecture","coordinates":{"lng":135.755583333,"lat":35.021027777}},{"name":"Mozu-Furuichi Kofun Group: Mounded Tombs of Ancient Japan","coordinates":{"lng":135.6094,"lat":34.5622}},{"name":"Ogasawara Archipelago","coordinates":{"lng":142.16667,"lat":27}},{"name":"Sacred Island of Okinoshima and Associated Sites in the Munakata Region","coordinates":{"lng":130.1056,"lat":34.245}},{"name":"Sacred Sites and Pilgrimage Routes in the Kii Mountain Range","coordinates":{"lng":135.77639,"lat":33.83694}},{"name":"Sado Island Gold Mines","coordinates":{"lng":138.257777777,"lat":38.040833333}},{"name":"Sado mine","coordinates":{"lng":138.256,"lat":38.0416}},{"name":"Shirakami-Sanchi","coordinates":{"lng":140.198611111,"lat":40.450277777}},{"name":"Shiretoko","coordinates":{"lng":144.95,"lat":43.933333333}},{"name":"Shiretoko Peninsula","coordinates":{"lng":145,"lat":44}},{"name":"Shrines and Temples of Nikkō","coordinates":{"lng":139.5994,"lat":36.7565}},{"name":"Sites of Japan’s Meiji Industrial Revolution: Iron and Steel, Shipbuilding and Coal Mining","coordinates":{"lng":131.4122222,"lat":34.43055556}},{"name":"The Architectural Work of Le Corbusier","coordinates":{"lng":6.829336,"lat":46.468414}},{"name":"The Tomioka Silk Mill and Related Industrial Heritage","coordinates":{"lng":138.8878,"lat":36.2553}},{"name":"Yakushima","coordinates":{"lng":130.528611111,"lat":30.358611111}},{"name":"Yanbaru National Park","coordinates":{"lng":128.25,"lat":26.75}}],"BEL":[{"name":"Ancient and Primeval Beech Forests of the Carpathians and Other Regions of Europe","coordinates":{"lng":15,"lat":49}},{"name":"Béguinages in Flanders","coordinates":{"lng":4.47375,"lat":51.030972222}},{"name":"Belfries of Belgium and France","coordinates":{"lng":3.514842,"lat":50.635266}},{"name":"Colonies of Benevolence","coordinates":{"lng":6.391589,"lat":53.042222}},{"name":"Funerary and memory sites of the First World War (Western Front)","coordinates":null},{"name":"Grand-Place","coordinates":{"lng":4.35253815,"lat":50.84670775}},{"name":"Historic Centre of Brugge","coordinates":{"lng":3.22527,"lat":51.20891}},{"name":"lifts on the old Canal du Centre","coordinates":{"lng":4.0945,"lat":50.4714}},{"name":"Major Mining Sites of Wallonia","coordinates":{"lng":3.838333333,"lat":50.43527778}},{"name":"Major Town Houses of the Architect Victor Horta","coordinates":{"lng":4.35,"lat":50.81666667}},{"name":"Marktplein (Sint-Lievens-Houtem)","coordinates":{"lng":3.859208333,"lat":50.920547222}},{"name":"Museum Plantin-Moretus","coordinates":{"lng":4.398163888,"lat":51.218294444}},{"name":"Neolithic flint mines of Spiennes","coordinates":{"lng":3.982575,"lat":50.419988888}},{"name":"Stoclet Palace","coordinates":{"lng":4.41625,"lat":50.83514}},{"name":"The Architectural Work of Le Corbusier","coordinates":{"lng":6.829336,"lat":46.468414}},{"name":"The Great Spa Towns of Europe","coordinates":{"lng":5.866944444,"lat":50.492222222}},{"name":"Tournai Cathedral","coordinates":{"lng":3.388903,"lat":50.606502}}],"ISL":[{"name":"Surtsey","coordinates":{"lng":-20.604713791,"lat":63.30402566}},{"name":"Thingvellir National Park","coordinates":{"lng":-21.125,"lat":64.258055555}},{"name":"Vatnajökull National Park","coordinates":{"lng":-17,"lat":64.5}}],"BGR":[{"name":"Ancient and Primeval Beech Forests of the Carpathians and Other Regions of Europe","coordinates":{"lng":15,"lat":49}},{"name":"Ancient City of Nessebar","coordinates":{"lng":27.73,"lat":42.65611}},{"name":"Boyana Church","coordinates":{"lng":23.266172222,"lat":42.644672222}},{"name":"Madara Rider","coordinates":{"lng":27.1188945,"lat":43.2773746}},{"name":"Nesebar","coordinates":{"lng":27.724724,"lat":42.659507}},{"name":"Pirin National Park","coordinates":{"lng":23.487777777,"lat":41.672222222}},{"name":"Rila Monastery","coordinates":{"lng":23.4,"lat":42.116666666}},{"name":"Rock-hewn Churches of Ivanovo","coordinates":{"lng":25.988055555,"lat":43.695555555}},{"name":"Srebarna Nature Reserve","coordinates":{"lng":27.072206,"lat":44.111116}},{"name":"Thracian Tomb of Kazanlak","coordinates":{"lng":25.399166666,"lat":42.625555555}},{"name":"Thracian Tomb of Sveshtari","coordinates":{"lng":26.7663,"lat":43.744964}}],"ISR":[{"name":"Acre","coordinates":{"lng":35.083888888,"lat":32.926111111}},{"name":"Bahá'í World Centre buildings","coordinates":{"lng":34.98655,"lat":32.81378}},{"name":"Beit Guvrin National Park","coordinates":{"lng":34.89833333,"lat":31.61305556}},{"name":"Beit She'arim National Park","coordinates":{"lng":35.128055555,"lat":32.704166666}},{"name":"Biblical Tels - Megiddo, Hazor, Beer Sheba","coordinates":{"lng":35.18222,"lat":32.59722}},{"name":"Incense Route – Desert Cities in the Negev","coordinates":{"lng":34.657777777,"lat":31.0975}},{"name":"Masada","coordinates":{"lng":35.353888888,"lat":31.315555555}},{"name":"Nahal Me'arot Nature Reserve","coordinates":{"lng":34.966111111,"lat":32.670833333}},{"name":"Old City of Jerusalem and its Walls","coordinates":{"lng":35.23191,"lat":31.778214}},{"name":"The Beit HaHamera clandestine weapons cache in Kibbutz Na’an","coordinates":{"lng":34.859589211,"lat":31.883756617}},{"name":"White City","coordinates":{"lng":34.773888888,"lat":32.077777777}}],"YEM":[{"name":"Landmarks of the Ancient Kingdom of Saba","coordinates":{"lng":45.335227777,"lat":15.426769444}},{"name":"Old Sana'a","coordinates":{"lng":44.2145,"lat":15.3551}},{"name":"Shibam","coordinates":{"lng":48.626666666,"lat":15.926944444}},{"name":"Socotra Archipelago","coordinates":{"lng":53.4,"lat":12.5}},{"name":"Zabid","coordinates":{"lng":43.316666666,"lat":14.2}}],"SRB":[{"name":"Gamzigrad","coordinates":{"lng":22.186166666,"lat":43.899305555}},{"name":"Medieval Monuments in Kosovo","coordinates":{"lng":20.265555555,"lat":42.661111111}},{"name":"Stari Ras and Sopoćani","coordinates":{"lng":20.42278,"lat":43.11889}},{"name":"Stećci (UNESCO svjetska baština)","coordinates":{"lng":17.924052777,"lat":43.092213888}},{"name":"Studenica monastery","coordinates":{"lng":20.531638888,"lat":43.486722222}}],"MHL":[{"name":"Bikini Atoll","coordinates":{"lng":165.4,"lat":11.6}}],"NOR":[{"name":"Bryggen","coordinates":{"lng":5.323333333,"lat":60.3975}},{"name":"Hjemmeluft, Bergbukten 1","coordinates":{"lng":23.177887,"lat":69.948933}},{"name":"Hjemmeluft, Bergbukten 2","coordinates":{"lng":23.178323943,"lat":69.949083334}},{"name":"Hjemmeluft, Bergbukten 4B","coordinates":{"lng":23.177546,"lat":69.949131}},{"name":"Hjemmeluft, Ole Pedersen 11A","coordinates":{"lng":23.194039552,"lat":69.951575702}},{"name":"Rjukan–Notodden Industrial Heritage Site","coordinates":{"lng":8.593611111,"lat":59.878611111}},{"name":"Rock carvings at Alta","coordinates":{"lng":23.187777777,"lat":69.946944444}},{"name":"Røros Mining Town and the Circumference","coordinates":{"lng":11.38555556,"lat":62.57388889}},{"name":"Struve Geodetic Arc","coordinates":{"lng":25.649444444,"lat":52.289444444}},{"name":"Urnes Stave Church","coordinates":{"lng":7.3225,"lat":61.298055555}},{"name":"Vega Archipelago","coordinates":{"lng":11.9,"lat":65.633333333}},{"name":"West Norwegian Fjords – Geirangerfjord and Nærøyfjord","coordinates":{"lng":6.977692,"lat":60.965776}}],"UKR":[{"name":"Ancient and Primeval Beech Forests of the Carpathians and Other Regions of Europe","coordinates":{"lng":15,"lat":49}},{"name":"Ancient City of Tauric Chersonese and its Chora","coordinates":{"lng":33.49139,"lat":44.61083}},{"name":"Church of the Saviour at Berestove","coordinates":{"lng":30.555001,"lat":50.437333}},{"name":"Danube Delta","coordinates":{"lng":29.5,"lat":45.2}},{"name":"historical city centre of Odesa","coordinates":{"lng":30.741,"lat":46.485}},{"name":"Kyiv: Saint-Sophia Cathedral and Related Monastic Buildings, Kyiv-Pechersk Lavra","coordinates":{"lng":30.51686,"lat":50.45258}},{"name":"Old Town of Lviv","coordinates":{"lng":24.03194444,"lat":49.84166667}},{"name":"Residence of Bukovinian and Dalmatian Metropolitans","coordinates":{"lng":25.924905555,"lat":48.296641666}},{"name":"Struve Geodetic Arc","coordinates":{"lng":25.649444444,"lat":52.289444444}},{"name":"Wooden tserkvas of Carpathian region in Poland and Ukraine","coordinates":{"lng":21.0322,"lat":49.5339}}],"CZE":[{"name":"Ancient and Primeval Beech Forests of the Carpathians and Other Regions of Europe","coordinates":{"lng":15,"lat":49}},{"name":"Gardens and Castle at Kroměříž","coordinates":{"lng":17.3814272,"lat":49.2971717}},{"name":"Historic Centre of Český Krumlov","coordinates":{"lng":14.316666666,"lat":48.816666666}},{"name":"Historic Centre of Prague","coordinates":{"lng":14.41944,"lat":50.08972}},{"name":"Historic Centre of Telč","coordinates":{"lng":15.45,"lat":49.18333}},{"name":"Holašovice","coordinates":{"lng":14.266666666,"lat":48.966666666}},{"name":"Holy Trinity Column in Olomouc","coordinates":{"lng":17.250492,"lat":49.59402}},{"name":"Jewish Quarter and St Procopius' Basilica in Třebíč","coordinates":{"lng":15.8789,"lat":49.2172}},{"name":"Kutná Hora: Historical Town Centre with the Church of St Barbara and the Cathedral of Our Lady at Sedlec","coordinates":{"lng":15.26666667,"lat":49.95}},{"name":"Landscape for Breeding and Training of Ceremonial Carriage Horses at Kladruby nad Labem","coordinates":{"lng":15.4843,"lat":50.0567}},{"name":"Lednice-Valtice Cultural Landscape","coordinates":{"lng":16.775,"lat":48.7758}},{"name":"Litomyšl Chateau","coordinates":{"lng":16.312648833,"lat":49.873437833}},{"name":"Ore Mountain Mining Region","coordinates":{"lng":12.8373,"lat":50.4065}},{"name":"Pilgrimage Church of Saint John of Nepomuk","coordinates":{"lng":15.94194,"lat":49.58}},{"name":"The Great Spa Towns of Europe","coordinates":{"lng":5.866944444,"lat":50.492222222}},{"name":"Villa Tugendhat","coordinates":{"lng":16.615833333,"lat":49.207222222}},